[
    {
        "lat": "43.17",
        "lon": "141.32",
        "name": "石狩市花川",
        "pref": "1",
        "affi": "0",
        "areaCode": "100",
        "cityCode": "0123500",
        "stationCode": "0123500"
    },
    {
        "lat": "43.28",
        "lon": "141.42",
        "name": "石狩市聚富",
        "pref": "1",
        "affi": "0",
        "areaCode": "100",
        "cityCode": "0123500",
        "stationCode": "0123501"
    },
    {
        "lat": "43.40",
        "lon": "141.43",
        "name": "石狩市厚田",
        "pref": "1",
        "affi": "2",
        "areaCode": "100",
        "cityCode": "0123500",
        "stationCode": "0123520"
    },
    {
        "lat": "43.60",
        "lon": "141.39",
        "name": "石狩市浜益",
        "pref": "1",
        "affi": "2",
        "areaCode": "100",
        "cityCode": "0123500",
        "stationCode": "0123521"
    },
    {
        "lat": "43.17",
        "lon": "141.30",
        "name": "石狩市花畔",
        "pref": "1",
        "affi": "2",
        "areaCode": "100",
        "cityCode": "0123500",
        "stationCode": "0123522"
    },
    {
        "lat": "43.22",
        "lon": "141.52",
        "name": "当別町白樺",
        "pref": "1",
        "affi": "2",
        "areaCode": "100",
        "cityCode": "0130300",
        "stationCode": "0130320"
    },
    {
        "lat": "43.23",
        "lon": "141.65",
        "name": "新篠津村第４７線",
        "pref": "1",
        "affi": "1",
        "areaCode": "100",
        "cityCode": "0130400",
        "stationCode": "0130431"
    },
    {
        "lat": "43.06",
        "lon": "141.33",
        "name": "札幌中央区北２条",
        "pref": "1",
        "affi": "0",
        "areaCode": "101",
        "cityCode": "0110100",
        "stationCode": "0110100"
    },
    {
        "lat": "43.05",
        "lon": "141.34",
        "name": "札幌中央区南４条",
        "pref": "1",
        "affi": "1",
        "areaCode": "101",
        "cityCode": "0110100",
        "stationCode": "0110140"
    },
    {
        "lat": "43.14",
        "lon": "141.35",
        "name": "札幌北区太平",
        "pref": "1",
        "affi": "2",
        "areaCode": "101",
        "cityCode": "0110200",
        "stationCode": "0110220"
    },
    {
        "lat": "43.14",
        "lon": "141.36",
        "name": "札幌北区篠路",
        "pref": "1",
        "affi": "1",
        "areaCode": "101",
        "cityCode": "0110200",
        "stationCode": "0110240"
    },
    {
        "lat": "43.11",
        "lon": "141.33",
        "name": "札幌北区新琴似",
        "pref": "1",
        "affi": "1",
        "areaCode": "101",
        "cityCode": "0110200",
        "stationCode": "0110241"
    },
    {
        "lat": "43.09",
        "lon": "141.37",
        "name": "札幌東区元町",
        "pref": "1",
        "affi": "1",
        "areaCode": "101",
        "cityCode": "0110300",
        "stationCode": "0110341"
    },
    {
        "lat": "43.06",
        "lon": "141.42",
        "name": "札幌白石区北郷",
        "pref": "1",
        "affi": "1",
        "areaCode": "101",
        "cityCode": "0110400",
        "stationCode": "0110441"
    },
    {
        "lat": "43.03",
        "lon": "141.40",
        "name": "札幌豊平区月寒東",
        "pref": "1",
        "affi": "1",
        "areaCode": "101",
        "cityCode": "0110500",
        "stationCode": "0110540"
    },
    {
        "lat": "42.97",
        "lon": "141.18",
        "name": "札幌南区定山渓温泉",
        "pref": "1",
        "affi": "2",
        "areaCode": "101",
        "cityCode": "0110600",
        "stationCode": "0110621"
    },
    {
        "lat": "43.00",
        "lon": "141.33",
        "name": "札幌南区川沿",
        "pref": "1",
        "affi": "1",
        "areaCode": "101",
        "cityCode": "0110600",
        "stationCode": "0110642"
    },
    {
        "lat": "42.97",
        "lon": "141.33",
        "name": "札幌南区石山",
        "pref": "1",
        "affi": "1",
        "areaCode": "101",
        "cityCode": "0110600",
        "stationCode": "0110643"
    },
    {
        "lat": "43.07",
        "lon": "141.30",
        "name": "札幌西区琴似",
        "pref": "1",
        "affi": "1",
        "areaCode": "101",
        "cityCode": "0110700",
        "stationCode": "0110740"
    },
    {
        "lat": "43.03",
        "lon": "141.49",
        "name": "札幌厚別区もみじ台",
        "pref": "1",
        "affi": "1",
        "areaCode": "101",
        "cityCode": "0110800",
        "stationCode": "0110840"
    },
    {
        "lat": "43.12",
        "lon": "141.26",
        "name": "札幌手稲区前田",
        "pref": "1",
        "affi": "1",
        "areaCode": "101",
        "cityCode": "0110900",
        "stationCode": "0110940"
    },
    {
        "lat": "43.10",
        "lon": "141.54",
        "name": "江別市高砂町",
        "pref": "1",
        "affi": "0",
        "areaCode": "101",
        "cityCode": "0121700",
        "stationCode": "0121700"
    },
    {
        "lat": "43.12",
        "lon": "141.55",
        "name": "江別市緑町",
        "pref": "1",
        "affi": "2",
        "areaCode": "101",
        "cityCode": "0121700",
        "stationCode": "0121720"
    },
    {
        "lat": "43.00",
        "lon": "141.44",
        "name": "札幌清田区平岡",
        "pref": "1",
        "affi": "1",
        "areaCode": "101",
        "cityCode": "0111000",
        "stationCode": "0111040"
    },
    {
        "lat": "42.83",
        "lon": "141.64",
        "name": "千歳市北栄",
        "pref": "1",
        "affi": "0",
        "areaCode": "102",
        "cityCode": "0122400",
        "stationCode": "0122400"
    },
    {
        "lat": "42.78",
        "lon": "141.68",
        "name": "新千歳空港",
        "pref": "1",
        "affi": "0",
        "areaCode": "102",
        "cityCode": "0122400",
        "stationCode": "0122401"
    },
    {
        "lat": "42.79",
        "lon": "141.60",
        "name": "千歳市若草",
        "pref": "1",
        "affi": "2",
        "areaCode": "102",
        "cityCode": "0122400",
        "stationCode": "0122420"
    },
    {
        "lat": "42.78",
        "lon": "141.40",
        "name": "千歳市支笏湖温泉",
        "pref": "1",
        "affi": "2",
        "areaCode": "102",
        "cityCode": "0122400",
        "stationCode": "0122421"
    },
    {
        "lat": "42.84",
        "lon": "141.45",
        "name": "恵庭市漁平",
        "pref": "1",
        "affi": "0",
        "areaCode": "102",
        "cityCode": "0123100",
        "stationCode": "0123100"
    },
    {
        "lat": "42.88",
        "lon": "141.58",
        "name": "恵庭市京町",
        "pref": "1",
        "affi": "1",
        "areaCode": "102",
        "cityCode": "0123100",
        "stationCode": "0123130"
    },
    {
        "lat": "42.97",
        "lon": "141.52",
        "name": "北広島市中の沢",
        "pref": "1",
        "affi": "2",
        "areaCode": "102",
        "cityCode": "0123400",
        "stationCode": "0123421"
    },
    {
        "lat": "42.12",
        "lon": "140.37",
        "name": "八雲町上の湯",
        "pref": "1",
        "affi": "0",
        "areaCode": "105",
        "cityCode": "0134600",
        "stationCode": "0134601"
    },
    {
        "lat": "42.26",
        "lon": "140.26",
        "name": "八雲町住初町",
        "pref": "1",
        "affi": "2",
        "areaCode": "105",
        "cityCode": "0134600",
        "stationCode": "0134620"
    },
    {
        "lat": "42.13",
        "lon": "139.98",
        "name": "八雲町熊石雲石町",
        "pref": "1",
        "affi": "2",
        "areaCode": "105",
        "cityCode": "0134600",
        "stationCode": "0134621"
    },
    {
        "lat": "42.49",
        "lon": "140.35",
        "name": "長万部町平里",
        "pref": "1",
        "affi": "2",
        "areaCode": "105",
        "cityCode": "0134700",
        "stationCode": "0134720"
    },
    {
        "lat": "41.89",
        "lon": "141.03",
        "name": "函館市尾札部町",
        "pref": "1",
        "affi": "0",
        "areaCode": "106",
        "cityCode": "0120200",
        "stationCode": "0120201"
    },
    {
        "lat": "41.82",
        "lon": "140.75",
        "name": "函館市美原",
        "pref": "1",
        "affi": "0",
        "areaCode": "106",
        "cityCode": "0120200",
        "stationCode": "0120202"
    },
    {
        "lat": "41.77",
        "lon": "140.74",
        "name": "函館市大森町",
        "pref": "1",
        "affi": "2",
        "areaCode": "106",
        "cityCode": "0120200",
        "stationCode": "0120220"
    },
    {
        "lat": "41.72",
        "lon": "141.00",
        "name": "函館市泊町",
        "pref": "1",
        "affi": "2",
        "areaCode": "106",
        "cityCode": "0120200",
        "stationCode": "0120221"
    },
    {
        "lat": "41.83",
        "lon": "141.14",
        "name": "函館市新浜町",
        "pref": "1",
        "affi": "2",
        "areaCode": "106",
        "cityCode": "0120200",
        "stationCode": "0120222"
    },
    {
        "lat": "41.91",
        "lon": "140.97",
        "name": "函館市川汲町",
        "pref": "1",
        "affi": "2",
        "areaCode": "106",
        "cityCode": "0120200",
        "stationCode": "0120223"
    },
    {
        "lat": "41.79",
        "lon": "141.11",
        "name": "函館市日ノ浜町",
        "pref": "1",
        "affi": "1",
        "areaCode": "106",
        "cityCode": "0120200",
        "stationCode": "0120231"
    },
    {
        "lat": "41.90",
        "lon": "140.69",
        "name": "七飯町桜町",
        "pref": "1",
        "affi": "0",
        "areaCode": "106",
        "cityCode": "0133700",
        "stationCode": "0133701"
    },
    {
        "lat": "41.90",
        "lon": "140.70",
        "name": "七飯町本町",
        "pref": "1",
        "affi": "2",
        "areaCode": "106",
        "cityCode": "0133700",
        "stationCode": "0133720"
    },
    {
        "lat": "42.04",
        "lon": "140.81",
        "name": "鹿部町宮浜",
        "pref": "1",
        "affi": "2",
        "areaCode": "106",
        "cityCode": "0134300",
        "stationCode": "0134320"
    },
    {
        "lat": "42.11",
        "lon": "140.58",
        "name": "渡島森町御幸町",
        "pref": "1",
        "affi": "0",
        "areaCode": "106",
        "cityCode": "0134500",
        "stationCode": "0134503"
    },
    {
        "lat": "42.10",
        "lon": "140.56",
        "name": "渡島森町上台町",
        "pref": "1",
        "affi": "2",
        "areaCode": "106",
        "cityCode": "0134500",
        "stationCode": "0134520"
    },
    {
        "lat": "42.12",
        "lon": "140.67",
        "name": "渡島森町砂原",
        "pref": "1",
        "affi": "1",
        "areaCode": "106",
        "cityCode": "0134500",
        "stationCode": "0134531"
    },
    {
        "lat": "41.82",
        "lon": "140.65",
        "name": "渡島北斗市中央",
        "pref": "1",
        "affi": "1",
        "areaCode": "106",
        "cityCode": "0123600",
        "stationCode": "0123632"
    },
    {
        "lat": "41.88",
        "lon": "140.64",
        "name": "渡島北斗市本町",
        "pref": "1",
        "affi": "1",
        "areaCode": "106",
        "cityCode": "0123600",
        "stationCode": "0123633"
    },
    {
        "lat": "41.43",
        "lon": "140.11",
        "name": "渡島松前町福山",
        "pref": "1",
        "affi": "0",
        "areaCode": "107",
        "cityCode": "0133100",
        "stationCode": "0133100"
    },
    {
        "lat": "41.52",
        "lon": "140.01",
        "name": "渡島松前町清部",
        "pref": "1",
        "affi": "0",
        "areaCode": "107",
        "cityCode": "0133100",
        "stationCode": "0133101"
    },
    {
        "lat": "41.49",
        "lon": "140.25",
        "name": "福島町福島",
        "pref": "1",
        "affi": "2",
        "areaCode": "107",
        "cityCode": "0133200",
        "stationCode": "0133220"
    },
    {
        "lat": "41.53",
        "lon": "140.41",
        "name": "知内町小谷石",
        "pref": "1",
        "affi": "0",
        "areaCode": "107",
        "cityCode": "0133300",
        "stationCode": "0133300"
    },
    {
        "lat": "41.60",
        "lon": "140.42",
        "name": "知内町重内",
        "pref": "1",
        "affi": "1",
        "areaCode": "107",
        "cityCode": "0133300",
        "stationCode": "0133331"
    },
    {
        "lat": "41.68",
        "lon": "140.43",
        "name": "木古内町木古内",
        "pref": "1",
        "affi": "2",
        "areaCode": "107",
        "cityCode": "0133400",
        "stationCode": "0133421"
    },
    {
        "lat": "41.87",
        "lon": "140.12",
        "name": "檜山江差町姥神",
        "pref": "1",
        "affi": "0",
        "areaCode": "110",
        "cityCode": "0136100",
        "stationCode": "0136101"
    },
    {
        "lat": "41.87",
        "lon": "140.13",
        "name": "檜山江差町中歌町",
        "pref": "1",
        "affi": "2",
        "areaCode": "110",
        "cityCode": "0136100",
        "stationCode": "0136120"
    },
    {
        "lat": "41.75",
        "lon": "140.25",
        "name": "上ノ国町湯ノ岱",
        "pref": "1",
        "affi": "2",
        "areaCode": "110",
        "cityCode": "0136200",
        "stationCode": "0136220"
    },
    {
        "lat": "41.65",
        "lon": "140.00",
        "name": "上ノ国町小砂子",
        "pref": "1",
        "affi": "2",
        "areaCode": "110",
        "cityCode": "0136200",
        "stationCode": "0136221"
    },
    {
        "lat": "41.80",
        "lon": "140.12",
        "name": "上ノ国町大留",
        "pref": "1",
        "affi": "1",
        "areaCode": "110",
        "cityCode": "0136200",
        "stationCode": "0136231"
    },
    {
        "lat": "41.94",
        "lon": "140.37",
        "name": "厚沢部町木間内",
        "pref": "1",
        "affi": "2",
        "areaCode": "110",
        "cityCode": "0136300",
        "stationCode": "0136320"
    },
    {
        "lat": "41.92",
        "lon": "140.23",
        "name": "厚沢部町新町",
        "pref": "1",
        "affi": "1",
        "areaCode": "110",
        "cityCode": "0136300",
        "stationCode": "0136331"
    },
    {
        "lat": "41.97",
        "lon": "140.14",
        "name": "乙部町緑町",
        "pref": "1",
        "affi": "1",
        "areaCode": "110",
        "cityCode": "0136400",
        "stationCode": "0136431"
    },
    {
        "lat": "42.43",
        "lon": "140.02",
        "name": "今金町今金",
        "pref": "1",
        "affi": "2",
        "areaCode": "110",
        "cityCode": "0137000",
        "stationCode": "0137020"
    },
    {
        "lat": "42.42",
        "lon": "139.88",
        "name": "せたな町北檜山区豊岡",
        "pref": "1",
        "affi": "0",
        "areaCode": "110",
        "cityCode": "0137100",
        "stationCode": "0137100"
    },
    {
        "lat": "42.23",
        "lon": "139.82",
        "name": "せたな町大成区都",
        "pref": "1",
        "affi": "2",
        "areaCode": "110",
        "cityCode": "0137100",
        "stationCode": "0137120"
    },
    {
        "lat": "42.45",
        "lon": "139.85",
        "name": "せたな町瀬棚区本町",
        "pref": "1",
        "affi": "2",
        "areaCode": "110",
        "cityCode": "0137100",
        "stationCode": "0137121"
    },
    {
        "lat": "42.59",
        "lon": "139.83",
        "name": "せたな町瀬棚区北島歌",
        "pref": "1",
        "affi": "2",
        "areaCode": "110",
        "cityCode": "0137100",
        "stationCode": "0137122"
    },
    {
        "lat": "42.42",
        "lon": "139.88",
        "name": "せたな町北檜山区徳島",
        "pref": "1",
        "affi": "1",
        "areaCode": "110",
        "cityCode": "0137100",
        "stationCode": "0137131"
    },
    {
        "lat": "43.18",
        "lon": "141.02",
        "name": "小樽市勝納町",
        "pref": "1",
        "affi": "0",
        "areaCode": "115",
        "cityCode": "0120300",
        "stationCode": "0120300"
    },
    {
        "lat": "43.19",
        "lon": "140.99",
        "name": "小樽市花園町",
        "pref": "1",
        "affi": "2",
        "areaCode": "115",
        "cityCode": "0120300",
        "stationCode": "0120320"
    },
    {
        "lat": "43.35",
        "lon": "140.47",
        "name": "積丹町日司町",
        "pref": "1",
        "affi": "0",
        "areaCode": "115",
        "cityCode": "0140500",
        "stationCode": "0140500"
    },
    {
        "lat": "43.29",
        "lon": "140.60",
        "name": "積丹町美国町",
        "pref": "1",
        "affi": "2",
        "areaCode": "115",
        "cityCode": "0140500",
        "stationCode": "0140520"
    },
    {
        "lat": "43.32",
        "lon": "140.38",
        "name": "積丹町余別町",
        "pref": "1",
        "affi": "2",
        "areaCode": "115",
        "cityCode": "0140500",
        "stationCode": "0140521"
    },
    {
        "lat": "43.26",
        "lon": "140.64",
        "name": "古平町浜町",
        "pref": "1",
        "affi": "1",
        "areaCode": "115",
        "cityCode": "0140600",
        "stationCode": "0140632"
    },
    {
        "lat": "43.15",
        "lon": "140.77",
        "name": "仁木町西町",
        "pref": "1",
        "affi": "1",
        "areaCode": "115",
        "cityCode": "0140700",
        "stationCode": "0140731"
    },
    {
        "lat": "43.20",
        "lon": "140.78",
        "name": "余市町朝日町",
        "pref": "1",
        "affi": "0",
        "areaCode": "115",
        "cityCode": "0140800",
        "stationCode": "0140800"
    },
    {
        "lat": "43.20",
        "lon": "140.78",
        "name": "余市町浜中町",
        "pref": "1",
        "affi": "2",
        "areaCode": "115",
        "cityCode": "0140800",
        "stationCode": "0140820"
    },
    {
        "lat": "43.08",
        "lon": "140.82",
        "name": "赤井川村赤井川",
        "pref": "1",
        "affi": "2",
        "areaCode": "115",
        "cityCode": "0140900",
        "stationCode": "0140920"
    },
    {
        "lat": "42.81",
        "lon": "140.69",
        "name": "ニセコ町中央通",
        "pref": "1",
        "affi": "2",
        "areaCode": "116",
        "cityCode": "0139500",
        "stationCode": "0139520"
    },
    {
        "lat": "42.76",
        "lon": "140.80",
        "name": "真狩村真狩",
        "pref": "1",
        "affi": "1",
        "areaCode": "116",
        "cityCode": "0139600",
        "stationCode": "0139632"
    },
    {
        "lat": "42.74",
        "lon": "140.88",
        "name": "留寿都村留寿都",
        "pref": "1",
        "affi": "1",
        "areaCode": "116",
        "cityCode": "0139700",
        "stationCode": "0139731"
    },
    {
        "lat": "42.80",
        "lon": "140.94",
        "name": "喜茂別町喜茂別",
        "pref": "1",
        "affi": "2",
        "areaCode": "116",
        "cityCode": "0139800",
        "stationCode": "0139820"
    },
    {
        "lat": "42.86",
        "lon": "140.88",
        "name": "京極町京極",
        "pref": "1",
        "affi": "1",
        "areaCode": "116",
        "cityCode": "0139900",
        "stationCode": "0139931"
    },
    {
        "lat": "42.90",
        "lon": "140.76",
        "name": "倶知安町南１条",
        "pref": "1",
        "affi": "0",
        "areaCode": "116",
        "cityCode": "0140000",
        "stationCode": "0140000"
    },
    {
        "lat": "42.91",
        "lon": "140.77",
        "name": "倶知安町北４条",
        "pref": "1",
        "affi": "2",
        "areaCode": "116",
        "cityCode": "0140000",
        "stationCode": "0140020"
    },
    {
        "lat": "42.65",
        "lon": "140.04",
        "name": "島牧村江ノ島",
        "pref": "1",
        "affi": "0",
        "areaCode": "117",
        "cityCode": "0139100",
        "stationCode": "0139100"
    },
    {
        "lat": "42.70",
        "lon": "140.06",
        "name": "島牧村泊",
        "pref": "1",
        "affi": "2",
        "areaCode": "117",
        "cityCode": "0139100",
        "stationCode": "0139120"
    },
    {
        "lat": "42.80",
        "lon": "140.22",
        "name": "寿都町新栄",
        "pref": "1",
        "affi": "0",
        "areaCode": "117",
        "cityCode": "0139200",
        "stationCode": "0139201"
    },
    {
        "lat": "42.79",
        "lon": "140.23",
        "name": "寿都町渡島",
        "pref": "1",
        "affi": "2",
        "areaCode": "117",
        "cityCode": "0139200",
        "stationCode": "0139220"
    },
    {
        "lat": "42.67",
        "lon": "140.30",
        "name": "黒松内町黒松内",
        "pref": "1",
        "affi": "2",
        "areaCode": "117",
        "cityCode": "0139300",
        "stationCode": "0139321"
    },
    {
        "lat": "42.81",
        "lon": "140.53",
        "name": "蘭越町蘭越",
        "pref": "1",
        "affi": "2",
        "areaCode": "117",
        "cityCode": "0139400",
        "stationCode": "0139420"
    },
    {
        "lat": "42.98",
        "lon": "140.61",
        "name": "共和町南幌似",
        "pref": "1",
        "affi": "1",
        "areaCode": "117",
        "cityCode": "0140100",
        "stationCode": "0140131"
    },
    {
        "lat": "42.98",
        "lon": "140.52",
        "name": "岩内町高台",
        "pref": "1",
        "affi": "0",
        "areaCode": "117",
        "cityCode": "0140200",
        "stationCode": "0140201"
    },
    {
        "lat": "42.98",
        "lon": "140.51",
        "name": "岩内町清住",
        "pref": "1",
        "affi": "2",
        "areaCode": "117",
        "cityCode": "0140200",
        "stationCode": "0140220"
    },
    {
        "lat": "43.06",
        "lon": "140.50",
        "name": "泊村茅沼村",
        "pref": "1",
        "affi": "1",
        "areaCode": "117",
        "cityCode": "0140300",
        "stationCode": "0140331"
    },
    {
        "lat": "43.14",
        "lon": "140.44",
        "name": "神恵内村神恵内",
        "pref": "1",
        "affi": "2",
        "areaCode": "117",
        "cityCode": "0140400",
        "stationCode": "0140420"
    },
    {
        "lat": "42.08",
        "lon": "139.47",
        "name": "奥尻町松江",
        "pref": "1",
        "affi": "0",
        "areaCode": "119",
        "cityCode": "0136700",
        "stationCode": "0136701"
    },
    {
        "lat": "42.17",
        "lon": "139.51",
        "name": "奥尻町奥尻",
        "pref": "1",
        "affi": "1",
        "areaCode": "119",
        "cityCode": "0136700",
        "stationCode": "0136732"
    },
    {
        "lat": "43.72",
        "lon": "142.05",
        "name": "深川市１条",
        "pref": "1",
        "affi": "2",
        "areaCode": "120",
        "cityCode": "0122800",
        "stationCode": "0122820"
    },
    {
        "lat": "43.70",
        "lon": "141.96",
        "name": "妹背牛町妹背牛",
        "pref": "1",
        "affi": "1",
        "areaCode": "120",
        "cityCode": "0143300",
        "stationCode": "0143331"
    },
    {
        "lat": "43.77",
        "lon": "141.96",
        "name": "秩父別町役場",
        "pref": "1",
        "affi": "1",
        "areaCode": "120",
        "cityCode": "0143400",
        "stationCode": "0143431"
    },
    {
        "lat": "43.75",
        "lon": "141.72",
        "name": "北竜町竜西",
        "pref": "1",
        "affi": "0",
        "areaCode": "120",
        "cityCode": "0143700",
        "stationCode": "0143700"
    },
    {
        "lat": "43.73",
        "lon": "141.88",
        "name": "北竜町和",
        "pref": "1",
        "affi": "1",
        "areaCode": "120",
        "cityCode": "0143700",
        "stationCode": "0143731"
    },
    {
        "lat": "43.80",
        "lon": "141.93",
        "name": "沼田町沼田",
        "pref": "1",
        "affi": "2",
        "areaCode": "120",
        "cityCode": "0143800",
        "stationCode": "0143820"
    },
    {
        "lat": "43.51",
        "lon": "142.22",
        "name": "芦別市旭町",
        "pref": "1",
        "affi": "0",
        "areaCode": "121",
        "cityCode": "0121600",
        "stationCode": "0121600"
    },
    {
        "lat": "43.52",
        "lon": "142.19",
        "name": "芦別市北２条",
        "pref": "1",
        "affi": "2",
        "areaCode": "121",
        "cityCode": "0121600",
        "stationCode": "0121620"
    },
    {
        "lat": "43.56",
        "lon": "142.04",
        "name": "赤平市泉町",
        "pref": "1",
        "affi": "1",
        "areaCode": "121",
        "cityCode": "0121800",
        "stationCode": "0121831"
    },
    {
        "lat": "43.56",
        "lon": "141.91",
        "name": "滝川市大町",
        "pref": "1",
        "affi": "0",
        "areaCode": "121",
        "cityCode": "0122500",
        "stationCode": "0122500"
    },
    {
        "lat": "43.55",
        "lon": "141.92",
        "name": "滝川市新町",
        "pref": "1",
        "affi": "2",
        "areaCode": "121",
        "cityCode": "0122500",
        "stationCode": "0122520"
    },
    {
        "lat": "43.49",
        "lon": "141.90",
        "name": "砂川市西７条",
        "pref": "1",
        "affi": "1",
        "areaCode": "121",
        "cityCode": "0122600",
        "stationCode": "0122632"
    },
    {
        "lat": "43.52",
        "lon": "142.03",
        "name": "歌志内市本町",
        "pref": "1",
        "affi": "1",
        "areaCode": "121",
        "cityCode": "0122700",
        "stationCode": "0122731"
    },
    {
        "lat": "43.43",
        "lon": "141.88",
        "name": "奈井江町奈井江",
        "pref": "1",
        "affi": "1",
        "areaCode": "121",
        "cityCode": "0142400",
        "stationCode": "0142432"
    },
    {
        "lat": "43.48",
        "lon": "141.98",
        "name": "上砂川町上砂川",
        "pref": "1",
        "affi": "1",
        "areaCode": "121",
        "cityCode": "0142500",
        "stationCode": "0142532"
    },
    {
        "lat": "43.43",
        "lon": "141.82",
        "name": "浦臼町ウラウスナイ",
        "pref": "1",
        "affi": "1",
        "areaCode": "121",
        "cityCode": "0143100",
        "stationCode": "0143130"
    },
    {
        "lat": "43.55",
        "lon": "141.88",
        "name": "新十津川町中央",
        "pref": "1",
        "affi": "1",
        "areaCode": "121",
        "cityCode": "0143200",
        "stationCode": "0143232"
    },
    {
        "lat": "43.64",
        "lon": "141.89",
        "name": "雨竜町フシコウリウ",
        "pref": "1",
        "affi": "1",
        "areaCode": "121",
        "cityCode": "0143600",
        "stationCode": "0143632"
    },
    {
        "lat": "43.03",
        "lon": "141.97",
        "name": "夕張市若菜",
        "pref": "1",
        "affi": "0",
        "areaCode": "122",
        "cityCode": "0120900",
        "stationCode": "0120900"
    },
    {
        "lat": "43.21",
        "lon": "141.79",
        "name": "岩見沢市５条",
        "pref": "1",
        "affi": "0",
        "areaCode": "122",
        "cityCode": "0121000",
        "stationCode": "0121000"
    },
    {
        "lat": "43.20",
        "lon": "141.78",
        "name": "岩見沢市鳩が丘",
        "pref": "1",
        "affi": "2",
        "areaCode": "122",
        "cityCode": "0121000",
        "stationCode": "0121021"
    },
    {
        "lat": "43.26",
        "lon": "141.70",
        "name": "岩見沢市北村赤川",
        "pref": "1",
        "affi": "1",
        "areaCode": "122",
        "cityCode": "0121000",
        "stationCode": "0121032"
    },
    {
        "lat": "43.12",
        "lon": "141.75",
        "name": "岩見沢市栗沢町東本町",
        "pref": "1",
        "affi": "1",
        "areaCode": "122",
        "cityCode": "0121000",
        "stationCode": "0121034"
    },
    {
        "lat": "43.33",
        "lon": "141.85",
        "name": "美唄市西５条",
        "pref": "1",
        "affi": "0",
        "areaCode": "122",
        "cityCode": "0121500",
        "stationCode": "0121501"
    },
    {
        "lat": "43.33",
        "lon": "141.86",
        "name": "美唄市西３条",
        "pref": "1",
        "affi": "2",
        "areaCode": "122",
        "cityCode": "0121500",
        "stationCode": "0121520"
    },
    {
        "lat": "43.25",
        "lon": "141.88",
        "name": "三笠市幸町",
        "pref": "1",
        "affi": "1",
        "areaCode": "122",
        "cityCode": "0122200",
        "stationCode": "0122231"
    },
    {
        "lat": "43.06",
        "lon": "141.65",
        "name": "南幌町栄町",
        "pref": "1",
        "affi": "1",
        "areaCode": "122",
        "cityCode": "0142300",
        "stationCode": "0142331"
    },
    {
        "lat": "43.00",
        "lon": "141.79",
        "name": "由仁町新光",
        "pref": "1",
        "affi": "2",
        "areaCode": "122",
        "cityCode": "0142700",
        "stationCode": "0142720"
    },
    {
        "lat": "43.01",
        "lon": "141.70",
        "name": "長沼町中央",
        "pref": "1",
        "affi": "1",
        "areaCode": "122",
        "cityCode": "0142800",
        "stationCode": "0142831"
    },
    {
        "lat": "43.06",
        "lon": "141.78",
        "name": "栗山町松風",
        "pref": "1",
        "affi": "1",
        "areaCode": "122",
        "cityCode": "0142900",
        "stationCode": "0142931"
    },
    {
        "lat": "43.34",
        "lon": "141.66",
        "name": "月形町円山公園",
        "pref": "1",
        "affi": "2",
        "areaCode": "122",
        "cityCode": "0143000",
        "stationCode": "0143020"
    },
    {
        "lat": "44.12",
        "lon": "142.59",
        "name": "士別市朝日町",
        "pref": "1",
        "affi": "0",
        "areaCode": "125",
        "cityCode": "0122000",
        "stationCode": "0122001"
    },
    {
        "lat": "44.18",
        "lon": "142.40",
        "name": "士別市東６条",
        "pref": "1",
        "affi": "0",
        "areaCode": "125",
        "cityCode": "0122000",
        "stationCode": "0122002"
    },
    {
        "lat": "44.18",
        "lon": "142.39",
        "name": "士別市東３条",
        "pref": "1",
        "affi": "2",
        "areaCode": "125",
        "cityCode": "0122000",
        "stationCode": "0122021"
    },
    {
        "lat": "44.36",
        "lon": "142.46",
        "name": "名寄市大通",
        "pref": "1",
        "affi": "0",
        "areaCode": "125",
        "cityCode": "0122100",
        "stationCode": "0122100"
    },
    {
        "lat": "44.36",
        "lon": "142.45",
        "name": "名寄市西５条",
        "pref": "1",
        "affi": "2",
        "areaCode": "125",
        "cityCode": "0122100",
        "stationCode": "0122120"
    },
    {
        "lat": "44.29",
        "lon": "142.41",
        "name": "名寄市風連町",
        "pref": "1",
        "affi": "1",
        "areaCode": "125",
        "cityCode": "0122100",
        "stationCode": "0122131"
    },
    {
        "lat": "44.02",
        "lon": "142.41",
        "name": "和寒町西町",
        "pref": "1",
        "affi": "2",
        "areaCode": "125",
        "cityCode": "0146400",
        "stationCode": "0146420"
    },
    {
        "lat": "44.10",
        "lon": "142.36",
        "name": "剣淵町仲町",
        "pref": "1",
        "affi": "1",
        "areaCode": "125",
        "cityCode": "0146500",
        "stationCode": "0146531"
    },
    {
        "lat": "44.31",
        "lon": "142.64",
        "name": "下川町北町",
        "pref": "1",
        "affi": "2",
        "areaCode": "125",
        "cityCode": "0146800",
        "stationCode": "0146820"
    },
    {
        "lat": "44.48",
        "lon": "142.34",
        "name": "美深町西町",
        "pref": "1",
        "affi": "2",
        "areaCode": "125",
        "cityCode": "0146900",
        "stationCode": "0146920"
    },
    {
        "lat": "44.54",
        "lon": "142.57",
        "name": "美深町仁宇布",
        "pref": "1",
        "affi": "2",
        "areaCode": "125",
        "cityCode": "0146900",
        "stationCode": "0146921"
    },
    {
        "lat": "44.73",
        "lon": "142.26",
        "name": "音威子府村音威子府",
        "pref": "1",
        "affi": "2",
        "areaCode": "125",
        "cityCode": "0147000",
        "stationCode": "0147020"
    },
    {
        "lat": "44.81",
        "lon": "142.07",
        "name": "上川中川町中川",
        "pref": "1",
        "affi": "2",
        "areaCode": "125",
        "cityCode": "0147100",
        "stationCode": "0147120"
    },
    {
        "lat": "44.01",
        "lon": "142.15",
        "name": "幌加内町平和",
        "pref": "1",
        "affi": "2",
        "areaCode": "125",
        "cityCode": "0147200",
        "stationCode": "0147220"
    },
    {
        "lat": "44.28",
        "lon": "142.16",
        "name": "幌加内町朱鞠内",
        "pref": "1",
        "affi": "2",
        "areaCode": "125",
        "cityCode": "0147200",
        "stationCode": "0147221"
    },
    {
        "lat": "43.76",
        "lon": "142.37",
        "name": "旭川市宮前１条",
        "pref": "1",
        "affi": "0",
        "areaCode": "126",
        "cityCode": "0120400",
        "stationCode": "0120401"
    },
    {
        "lat": "43.77",
        "lon": "142.36",
        "name": "旭川市７条",
        "pref": "1",
        "affi": "2",
        "areaCode": "126",
        "cityCode": "0120400",
        "stationCode": "0120420"
    },
    {
        "lat": "43.84",
        "lon": "142.35",
        "name": "鷹栖町南１条",
        "pref": "1",
        "affi": "1",
        "areaCode": "126",
        "cityCode": "0145200",
        "stationCode": "0145231"
    },
    {
        "lat": "43.70",
        "lon": "142.45",
        "name": "東神楽町南１条",
        "pref": "1",
        "affi": "1",
        "areaCode": "126",
        "cityCode": "0145300",
        "stationCode": "0145332"
    },
    {
        "lat": "43.83",
        "lon": "142.51",
        "name": "当麻町３条",
        "pref": "1",
        "affi": "1",
        "areaCode": "126",
        "cityCode": "0145400",
        "stationCode": "0145431"
    },
    {
        "lat": "43.88",
        "lon": "142.48",
        "name": "比布町北町",
        "pref": "1",
        "affi": "1",
        "areaCode": "126",
        "cityCode": "0145500",
        "stationCode": "0145531"
    },
    {
        "lat": "43.91",
        "lon": "142.57",
        "name": "愛別町南町",
        "pref": "1",
        "affi": "2",
        "areaCode": "126",
        "cityCode": "0145600",
        "stationCode": "0145620"
    },
    {
        "lat": "43.88",
        "lon": "142.74",
        "name": "上川地方上川町越路",
        "pref": "1",
        "affi": "0",
        "areaCode": "126",
        "cityCode": "0145700",
        "stationCode": "0145701"
    },
    {
        "lat": "43.85",
        "lon": "142.77",
        "name": "上川地方上川町花園町",
        "pref": "1",
        "affi": "2",
        "areaCode": "126",
        "cityCode": "0145700",
        "stationCode": "0145720"
    },
    {
        "lat": "43.77",
        "lon": "142.90",
        "name": "上川地方上川町清川",
        "pref": "1",
        "affi": "2",
        "areaCode": "126",
        "cityCode": "0145700",
        "stationCode": "0145721"
    },
    {
        "lat": "43.70",
        "lon": "142.51",
        "name": "東川町東町",
        "pref": "1",
        "affi": "1",
        "areaCode": "126",
        "cityCode": "0145800",
        "stationCode": "0145830"
    },
    {
        "lat": "43.59",
        "lon": "142.47",
        "name": "美瑛町本町",
        "pref": "1",
        "affi": "2",
        "areaCode": "126",
        "cityCode": "0145900",
        "stationCode": "0145920"
    },
    {
        "lat": "43.62",
        "lon": "142.68",
        "name": "美瑛町忠別",
        "pref": "1",
        "affi": "2",
        "areaCode": "126",
        "cityCode": "0145900",
        "stationCode": "0145921"
    },
    {
        "lat": "43.35",
        "lon": "142.38",
        "name": "富良野市若松町",
        "pref": "1",
        "affi": "0",
        "areaCode": "127",
        "cityCode": "0122900",
        "stationCode": "0122900"
    },
    {
        "lat": "43.34",
        "lon": "142.38",
        "name": "富良野市末広町",
        "pref": "1",
        "affi": "2",
        "areaCode": "127",
        "cityCode": "0122900",
        "stationCode": "0122920"
    },
    {
        "lat": "43.46",
        "lon": "142.47",
        "name": "上富良野町大町",
        "pref": "1",
        "affi": "0",
        "areaCode": "127",
        "cityCode": "0146000",
        "stationCode": "0146000"
    },
    {
        "lat": "43.41",
        "lon": "142.43",
        "name": "中富良野町本町",
        "pref": "1",
        "affi": "1",
        "areaCode": "127",
        "cityCode": "0146100",
        "stationCode": "0146131"
    },
    {
        "lat": "43.17",
        "lon": "142.59",
        "name": "南富良野町幾寅",
        "pref": "1",
        "affi": "0",
        "areaCode": "127",
        "cityCode": "0146200",
        "stationCode": "0146200"
    },
    {
        "lat": "43.17",
        "lon": "142.57",
        "name": "南富良野町役場",
        "pref": "1",
        "affi": "2",
        "areaCode": "127",
        "cityCode": "0146200",
        "stationCode": "0146220"
    },
    {
        "lat": "42.98",
        "lon": "142.40",
        "name": "占冠村中央",
        "pref": "1",
        "affi": "2",
        "areaCode": "127",
        "cityCode": "0146300",
        "stationCode": "0146320"
    },
    {
        "lat": "44.31",
        "lon": "141.65",
        "name": "苫前町旭",
        "pref": "1",
        "affi": "1",
        "areaCode": "130",
        "cityCode": "0148300",
        "stationCode": "0148331"
    },
    {
        "lat": "44.36",
        "lon": "141.70",
        "name": "羽幌町南３条",
        "pref": "1",
        "affi": "0",
        "areaCode": "130",
        "cityCode": "0148400",
        "stationCode": "0148400"
    },
    {
        "lat": "44.43",
        "lon": "141.42",
        "name": "羽幌町焼尻",
        "pref": "1",
        "affi": "0",
        "areaCode": "130",
        "cityCode": "0148400",
        "stationCode": "0148401"
    },
    {
        "lat": "44.36",
        "lon": "141.70",
        "name": "羽幌町南町",
        "pref": "1",
        "affi": "2",
        "areaCode": "130",
        "cityCode": "0148400",
        "stationCode": "0148420"
    },
    {
        "lat": "44.40",
        "lon": "141.85",
        "name": "初山別村有明",
        "pref": "1",
        "affi": "0",
        "areaCode": "130",
        "cityCode": "0148500",
        "stationCode": "0148500"
    },
    {
        "lat": "44.53",
        "lon": "141.77",
        "name": "初山別村初山別",
        "pref": "1",
        "affi": "2",
        "areaCode": "130",
        "cityCode": "0148500",
        "stationCode": "0148520"
    },
    {
        "lat": "44.72",
        "lon": "141.79",
        "name": "遠別町本町",
        "pref": "1",
        "affi": "2",
        "areaCode": "130",
        "cityCode": "0148600",
        "stationCode": "0148620"
    },
    {
        "lat": "44.88",
        "lon": "141.75",
        "name": "天塩町川口",
        "pref": "1",
        "affi": "2",
        "areaCode": "130",
        "cityCode": "0148700",
        "stationCode": "0148720"
    },
    {
        "lat": "43.95",
        "lon": "141.63",
        "name": "留萌市大町",
        "pref": "1",
        "affi": "0",
        "areaCode": "131",
        "cityCode": "0121200",
        "stationCode": "0121201"
    },
    {
        "lat": "43.94",
        "lon": "141.64",
        "name": "留萌市幸町",
        "pref": "1",
        "affi": "2",
        "areaCode": "131",
        "cityCode": "0121200",
        "stationCode": "0121220"
    },
    {
        "lat": "43.85",
        "lon": "141.53",
        "name": "増毛町見晴町",
        "pref": "1",
        "affi": "2",
        "areaCode": "131",
        "cityCode": "0148100",
        "stationCode": "0148120"
    },
    {
        "lat": "43.77",
        "lon": "141.37",
        "name": "増毛町岩尾",
        "pref": "1",
        "affi": "2",
        "areaCode": "131",
        "cityCode": "0148100",
        "stationCode": "0148121"
    },
    {
        "lat": "44.15",
        "lon": "141.66",
        "name": "小平町鬼鹿",
        "pref": "1",
        "affi": "2",
        "areaCode": "131",
        "cityCode": "0148200",
        "stationCode": "0148220"
    },
    {
        "lat": "44.05",
        "lon": "141.86",
        "name": "小平町達布",
        "pref": "1",
        "affi": "2",
        "areaCode": "131",
        "cityCode": "0148200",
        "stationCode": "0148221"
    },
    {
        "lat": "45.32",
        "lon": "141.89",
        "name": "稚内市恵北",
        "pref": "1",
        "affi": "0",
        "areaCode": "135",
        "cityCode": "0121400",
        "stationCode": "0121401"
    },
    {
        "lat": "45.42",
        "lon": "141.68",
        "name": "稚内市開運",
        "pref": "1",
        "affi": "0",
        "areaCode": "135",
        "cityCode": "0121400",
        "stationCode": "0121402"
    },
    {
        "lat": "45.42",
        "lon": "141.67",
        "name": "稚内市中央",
        "pref": "1",
        "affi": "2",
        "areaCode": "135",
        "cityCode": "0121400",
        "stationCode": "0121420"
    },
    {
        "lat": "45.51",
        "lon": "141.95",
        "name": "稚内市宗谷岬",
        "pref": "1",
        "affi": "2",
        "areaCode": "135",
        "cityCode": "0121400",
        "stationCode": "0121421"
    },
    {
        "lat": "45.25",
        "lon": "141.85",
        "name": "稚内市沼川",
        "pref": "1",
        "affi": "2",
        "areaCode": "135",
        "cityCode": "0121400",
        "stationCode": "0121423"
    },
    {
        "lat": "45.21",
        "lon": "142.23",
        "name": "猿払村浅茅野",
        "pref": "1",
        "affi": "2",
        "areaCode": "135",
        "cityCode": "0151100",
        "stationCode": "0151121"
    },
    {
        "lat": "45.33",
        "lon": "142.17",
        "name": "猿払村浜鬼志別",
        "pref": "1",
        "affi": "2",
        "areaCode": "135",
        "cityCode": "0151100",
        "stationCode": "0151122"
    },
    {
        "lat": "45.10",
        "lon": "141.77",
        "name": "豊富町西６条",
        "pref": "1",
        "affi": "2",
        "areaCode": "135",
        "cityCode": "0151600",
        "stationCode": "0151620"
    },
    {
        "lat": "45.02",
        "lon": "141.85",
        "name": "幌延町宮園町",
        "pref": "1",
        "affi": "1",
        "areaCode": "135",
        "cityCode": "0152000",
        "stationCode": "0152031"
    },
    {
        "lat": "45.13",
        "lon": "142.35",
        "name": "浜頓別町クッチャロ",
        "pref": "1",
        "affi": "2",
        "areaCode": "136",
        "cityCode": "0151200",
        "stationCode": "0151220"
    },
    {
        "lat": "44.97",
        "lon": "142.29",
        "name": "中頓別町中頓別",
        "pref": "1",
        "affi": "2",
        "areaCode": "136",
        "cityCode": "0151300",
        "stationCode": "0151320"
    },
    {
        "lat": "44.96",
        "lon": "142.58",
        "name": "宗谷枝幸町岬町",
        "pref": "1",
        "affi": "0",
        "areaCode": "136",
        "cityCode": "0151400",
        "stationCode": "0151401"
    },
    {
        "lat": "44.94",
        "lon": "142.59",
        "name": "宗谷枝幸町本町",
        "pref": "1",
        "affi": "0",
        "areaCode": "136",
        "cityCode": "0151400",
        "stationCode": "0151403"
    },
    {
        "lat": "44.94",
        "lon": "142.57",
        "name": "宗谷枝幸町栄町",
        "pref": "1",
        "affi": "2",
        "areaCode": "136",
        "cityCode": "0151400",
        "stationCode": "0151420"
    },
    {
        "lat": "44.84",
        "lon": "142.48",
        "name": "宗谷枝幸町歌登東町",
        "pref": "1",
        "affi": "2",
        "areaCode": "136",
        "cityCode": "0151400",
        "stationCode": "0151421"
    },
    {
        "lat": "44.74",
        "lon": "142.76",
        "name": "宗谷枝幸町風烈布",
        "pref": "1",
        "affi": "2",
        "areaCode": "136",
        "cityCode": "0151400",
        "stationCode": "0151422"
    },
    {
        "lat": "45.42",
        "lon": "141.07",
        "name": "礼文町上泊埼",
        "pref": "1",
        "affi": "0",
        "areaCode": "139",
        "cityCode": "0151700",
        "stationCode": "0151700"
    },
    {
        "lat": "45.30",
        "lon": "141.05",
        "name": "礼文町香深",
        "pref": "1",
        "affi": "2",
        "areaCode": "139",
        "cityCode": "0151700",
        "stationCode": "0151720"
    },
    {
        "lat": "45.44",
        "lon": "141.04",
        "name": "礼文町船泊",
        "pref": "1",
        "affi": "2",
        "areaCode": "139",
        "cityCode": "0151700",
        "stationCode": "0151721"
    },
    {
        "lat": "45.19",
        "lon": "141.14",
        "name": "利尻町沓形",
        "pref": "1",
        "affi": "1",
        "areaCode": "139",
        "cityCode": "0151800",
        "stationCode": "0151831"
    },
    {
        "lat": "45.14",
        "lon": "141.31",
        "name": "利尻富士町鬼脇",
        "pref": "1",
        "affi": "0",
        "areaCode": "139",
        "cityCode": "0151900",
        "stationCode": "0151900"
    },
    {
        "lat": "45.25",
        "lon": "141.22",
        "name": "利尻富士町鴛泊",
        "pref": "1",
        "affi": "2",
        "areaCode": "139",
        "cityCode": "0151900",
        "stationCode": "0151920"
    },
    {
        "lat": "44.02",
        "lon": "144.28",
        "name": "網走市台町",
        "pref": "1",
        "affi": "0",
        "areaCode": "140",
        "cityCode": "0121100",
        "stationCode": "0121100"
    },
    {
        "lat": "44.02",
        "lon": "144.26",
        "name": "網走市北２条",
        "pref": "1",
        "affi": "2",
        "areaCode": "140",
        "cityCode": "0121100",
        "stationCode": "0121121"
    },
    {
        "lat": "43.82",
        "lon": "144.10",
        "name": "美幌町東３条",
        "pref": "1",
        "affi": "0",
        "areaCode": "140",
        "cityCode": "0154300",
        "stationCode": "0154301"
    },
    {
        "lat": "43.71",
        "lon": "144.03",
        "name": "津別町幸町",
        "pref": "1",
        "affi": "2",
        "areaCode": "140",
        "cityCode": "0154400",
        "stationCode": "0154420"
    },
    {
        "lat": "43.91",
        "lon": "144.67",
        "name": "斜里町本町",
        "pref": "1",
        "affi": "0",
        "areaCode": "140",
        "cityCode": "0154500",
        "stationCode": "0154500"
    },
    {
        "lat": "44.07",
        "lon": "145.00",
        "name": "斜里町ウトロ香川",
        "pref": "1",
        "affi": "2",
        "areaCode": "140",
        "cityCode": "0154500",
        "stationCode": "0154521"
    },
    {
        "lat": "43.84",
        "lon": "144.59",
        "name": "清里町羽衣町",
        "pref": "1",
        "affi": "1",
        "areaCode": "140",
        "cityCode": "0154600",
        "stationCode": "0154631"
    },
    {
        "lat": "43.86",
        "lon": "144.46",
        "name": "小清水町小清水",
        "pref": "1",
        "affi": "2",
        "areaCode": "140",
        "cityCode": "0154700",
        "stationCode": "0154721"
    },
    {
        "lat": "43.84",
        "lon": "144.29",
        "name": "大空町東藻琴",
        "pref": "1",
        "affi": "1",
        "areaCode": "140",
        "cityCode": "0156400",
        "stationCode": "0156432"
    },
    {
        "lat": "43.91",
        "lon": "144.17",
        "name": "大空町女満別西３条",
        "pref": "1",
        "affi": "1",
        "areaCode": "140",
        "cityCode": "0156400",
        "stationCode": "0156433"
    },
    {
        "lat": "43.82",
        "lon": "143.90",
        "name": "北見市公園町",
        "pref": "1",
        "affi": "0",
        "areaCode": "141",
        "cityCode": "0120800",
        "stationCode": "0120800"
    },
    {
        "lat": "44.12",
        "lon": "144.09",
        "name": "北見市常呂町東浜",
        "pref": "1",
        "affi": "0",
        "areaCode": "141",
        "cityCode": "0120800",
        "stationCode": "0120803"
    },
    {
        "lat": "43.76",
        "lon": "143.51",
        "name": "北見市留辺蘂町温根湯温泉",
        "pref": "1",
        "affi": "0",
        "areaCode": "141",
        "cityCode": "0120800",
        "stationCode": "0120804"
    },
    {
        "lat": "43.80",
        "lon": "143.90",
        "name": "北見市南仲町",
        "pref": "1",
        "affi": "2",
        "areaCode": "141",
        "cityCode": "0120800",
        "stationCode": "0120820"
    },
    {
        "lat": "44.12",
        "lon": "144.07",
        "name": "北見市常呂町常呂",
        "pref": "1",
        "affi": "2",
        "areaCode": "141",
        "cityCode": "0120800",
        "stationCode": "0120821"
    },
    {
        "lat": "43.78",
        "lon": "143.61",
        "name": "北見市留辺蘂町栄町",
        "pref": "1",
        "affi": "2",
        "areaCode": "141",
        "cityCode": "0120800",
        "stationCode": "0120822"
    },
    {
        "lat": "43.67",
        "lon": "143.31",
        "name": "北見市留辺蘂町富士見",
        "pref": "1",
        "affi": "2",
        "areaCode": "141",
        "cityCode": "0120800",
        "stationCode": "0120823"
    },
    {
        "lat": "43.86",
        "lon": "143.95",
        "name": "北見市端野町二区",
        "pref": "1",
        "affi": "1",
        "areaCode": "141",
        "cityCode": "0120800",
        "stationCode": "0120831"
    },
    {
        "lat": "43.73",
        "lon": "143.74",
        "name": "訓子府町東町",
        "pref": "1",
        "affi": "1",
        "areaCode": "141",
        "cityCode": "0154900",
        "stationCode": "0154931"
    },
    {
        "lat": "43.67",
        "lon": "143.58",
        "name": "置戸町拓殖",
        "pref": "1",
        "affi": "2",
        "areaCode": "141",
        "cityCode": "0155000",
        "stationCode": "0155020"
    },
    {
        "lat": "44.02",
        "lon": "143.77",
        "name": "佐呂間町永代町",
        "pref": "1",
        "affi": "2",
        "areaCode": "141",
        "cityCode": "0155200",
        "stationCode": "0155221"
    },
    {
        "lat": "44.35",
        "lon": "143.36",
        "name": "紋別市南が丘町",
        "pref": "1",
        "affi": "0",
        "areaCode": "142",
        "cityCode": "0121900",
        "stationCode": "0121901"
    },
    {
        "lat": "44.37",
        "lon": "143.35",
        "name": "紋別市北浜町",
        "pref": "1",
        "affi": "2",
        "areaCode": "142",
        "cityCode": "0121900",
        "stationCode": "0121921"
    },
    {
        "lat": "44.01",
        "lon": "143.36",
        "name": "遠軽町丸瀬布金湧山",
        "pref": "1",
        "affi": "0",
        "areaCode": "142",
        "cityCode": "0155500",
        "stationCode": "0155500"
    },
    {
        "lat": "44.09",
        "lon": "143.53",
        "name": "遠軽町学田",
        "pref": "1",
        "affi": "2",
        "areaCode": "142",
        "cityCode": "0155500",
        "stationCode": "0155520"
    },
    {
        "lat": "43.88",
        "lon": "143.17",
        "name": "遠軽町白滝",
        "pref": "1",
        "affi": "2",
        "areaCode": "142",
        "cityCode": "0155500",
        "stationCode": "0155521"
    },
    {
        "lat": "43.92",
        "lon": "143.53",
        "name": "遠軽町生田原",
        "pref": "1",
        "affi": "1",
        "areaCode": "142",
        "cityCode": "0155500",
        "stationCode": "0155531"
    },
    {
        "lat": "44.22",
        "lon": "143.62",
        "name": "湧別町栄町",
        "pref": "1",
        "affi": "2",
        "areaCode": "142",
        "cityCode": "0155900",
        "stationCode": "0155920"
    },
    {
        "lat": "44.15",
        "lon": "143.57",
        "name": "湧別町上湧別",
        "pref": "1",
        "affi": "1",
        "areaCode": "142",
        "cityCode": "0155900",
        "stationCode": "0155931"
    },
    {
        "lat": "44.19",
        "lon": "143.08",
        "name": "滝上町旭町",
        "pref": "1",
        "affi": "2",
        "areaCode": "142",
        "cityCode": "0156000",
        "stationCode": "0156020"
    },
    {
        "lat": "44.48",
        "lon": "143.13",
        "name": "興部町興部",
        "pref": "1",
        "affi": "2",
        "areaCode": "142",
        "cityCode": "0156100",
        "stationCode": "0156120"
    },
    {
        "lat": "44.33",
        "lon": "142.95",
        "name": "西興部村西興部",
        "pref": "1",
        "affi": "2",
        "areaCode": "142",
        "cityCode": "0156200",
        "stationCode": "0156220"
    },
    {
        "lat": "44.58",
        "lon": "142.96",
        "name": "雄武町雄武",
        "pref": "1",
        "affi": "0",
        "areaCode": "142",
        "cityCode": "0156300",
        "stationCode": "0156301"
    },
    {
        "lat": "42.47",
        "lon": "140.88",
        "name": "胆振伊達市梅本",
        "pref": "1",
        "affi": "0",
        "areaCode": "145",
        "cityCode": "0123300",
        "stationCode": "0123300"
    },
    {
        "lat": "42.47",
        "lon": "140.87",
        "name": "胆振伊達市末永町",
        "pref": "1",
        "affi": "2",
        "areaCode": "145",
        "cityCode": "0123300",
        "stationCode": "0123320"
    },
    {
        "lat": "42.67",
        "lon": "141.08",
        "name": "胆振伊達市大滝区本町",
        "pref": "1",
        "affi": "2",
        "areaCode": "145",
        "cityCode": "0123300",
        "stationCode": "0123321"
    },
    {
        "lat": "42.59",
        "lon": "140.64",
        "name": "豊浦町大岸",
        "pref": "1",
        "affi": "2",
        "areaCode": "145",
        "cityCode": "0157100",
        "stationCode": "0157120"
    },
    {
        "lat": "42.55",
        "lon": "140.89",
        "name": "壮瞥町滝之町",
        "pref": "1",
        "affi": "2",
        "areaCode": "145",
        "cityCode": "0157500",
        "stationCode": "0157520"
    },
    {
        "lat": "42.55",
        "lon": "140.76",
        "name": "洞爺湖町栄町",
        "pref": "1",
        "affi": "1",
        "areaCode": "145",
        "cityCode": "0158400",
        "stationCode": "0158432"
    },
    {
        "lat": "42.65",
        "lon": "140.83",
        "name": "洞爺湖町洞爺町",
        "pref": "1",
        "affi": "1",
        "areaCode": "145",
        "cityCode": "0158400",
        "stationCode": "0158433"
    },
    {
        "lat": "42.31",
        "lon": "140.98",
        "name": "室蘭市山手町",
        "pref": "1",
        "affi": "0",
        "areaCode": "146",
        "cityCode": "0120500",
        "stationCode": "0120501"
    },
    {
        "lat": "42.35",
        "lon": "141.03",
        "name": "室蘭市寿町",
        "pref": "1",
        "affi": "2",
        "areaCode": "146",
        "cityCode": "0120500",
        "stationCode": "0120520"
    },
    {
        "lat": "42.64",
        "lon": "141.61",
        "name": "苫小牧市末広町",
        "pref": "1",
        "affi": "0",
        "areaCode": "146",
        "cityCode": "0121300",
        "stationCode": "0121301"
    },
    {
        "lat": "42.63",
        "lon": "141.61",
        "name": "苫小牧市旭町",
        "pref": "1",
        "affi": "2",
        "areaCode": "146",
        "cityCode": "0121300",
        "stationCode": "0121320"
    },
    {
        "lat": "42.47",
        "lon": "141.03",
        "name": "登別市鉱山",
        "pref": "1",
        "affi": "0",
        "areaCode": "146",
        "cityCode": "0123000",
        "stationCode": "0123000"
    },
    {
        "lat": "42.42",
        "lon": "141.08",
        "name": "登別市桜木町",
        "pref": "1",
        "affi": "2",
        "areaCode": "146",
        "cityCode": "0123000",
        "stationCode": "0123020"
    },
    {
        "lat": "42.49",
        "lon": "141.25",
        "name": "白老町竹浦",
        "pref": "1",
        "affi": "0",
        "areaCode": "146",
        "cityCode": "0157800",
        "stationCode": "0157801"
    },
    {
        "lat": "42.56",
        "lon": "141.35",
        "name": "白老町緑丘",
        "pref": "1",
        "affi": "2",
        "areaCode": "146",
        "cityCode": "0157800",
        "stationCode": "0157820"
    },
    {
        "lat": "42.62",
        "lon": "141.92",
        "name": "厚真町鹿沼",
        "pref": "1",
        "affi": "0",
        "areaCode": "146",
        "cityCode": "0158100",
        "stationCode": "0158100"
    },
    {
        "lat": "42.72",
        "lon": "141.88",
        "name": "厚真町京町",
        "pref": "1",
        "affi": "1",
        "areaCode": "146",
        "cityCode": "0158100",
        "stationCode": "0158131"
    },
    {
        "lat": "42.77",
        "lon": "141.82",
        "name": "安平町早来北進",
        "pref": "1",
        "affi": "2",
        "areaCode": "146",
        "cityCode": "0158500",
        "stationCode": "0158520"
    },
    {
        "lat": "42.87",
        "lon": "141.82",
        "name": "安平町追分柏が丘",
        "pref": "1",
        "affi": "2",
        "areaCode": "146",
        "cityCode": "0158500",
        "stationCode": "0158521"
    },
    {
        "lat": "42.57",
        "lon": "141.93",
        "name": "むかわ町松風",
        "pref": "1",
        "affi": "2",
        "areaCode": "146",
        "cityCode": "0158600",
        "stationCode": "0158620"
    },
    {
        "lat": "42.76",
        "lon": "142.13",
        "name": "むかわ町穂別",
        "pref": "1",
        "affi": "2",
        "areaCode": "146",
        "cityCode": "0158600",
        "stationCode": "0158621"
    },
    {
        "lat": "42.88",
        "lon": "142.45",
        "name": "日高地方日高町日高",
        "pref": "1",
        "affi": "2",
        "areaCode": "150",
        "cityCode": "0160100",
        "stationCode": "0160120"
    },
    {
        "lat": "42.48",
        "lon": "142.05",
        "name": "日高地方日高町門別",
        "pref": "1",
        "affi": "2",
        "areaCode": "150",
        "cityCode": "0160100",
        "stationCode": "0160121"
    },
    {
        "lat": "42.78",
        "lon": "142.36",
        "name": "平取町仁世宇",
        "pref": "1",
        "affi": "0",
        "areaCode": "150",
        "cityCode": "0160200",
        "stationCode": "0160200"
    },
    {
        "lat": "42.59",
        "lon": "142.13",
        "name": "平取町本町",
        "pref": "1",
        "affi": "2",
        "areaCode": "150",
        "cityCode": "0160200",
        "stationCode": "0160220"
    },
    {
        "lat": "42.73",
        "lon": "142.30",
        "name": "平取町振内",
        "pref": "1",
        "affi": "2",
        "areaCode": "150",
        "cityCode": "0160200",
        "stationCode": "0160221"
    },
    {
        "lat": "42.36",
        "lon": "142.32",
        "name": "新冠町北星町",
        "pref": "1",
        "affi": "1",
        "areaCode": "151",
        "cityCode": "0160400",
        "stationCode": "0160431"
    },
    {
        "lat": "42.34",
        "lon": "142.36",
        "name": "新ひだか町静内山手町",
        "pref": "1",
        "affi": "0",
        "areaCode": "151",
        "cityCode": "0161000",
        "stationCode": "0161001"
    },
    {
        "lat": "42.41",
        "lon": "142.47",
        "name": "新ひだか町静内御園",
        "pref": "1",
        "affi": "0",
        "areaCode": "151",
        "cityCode": "0161000",
        "stationCode": "0161002"
    },
    {
        "lat": "42.34",
        "lon": "142.37",
        "name": "新ひだか町静内御幸町",
        "pref": "1",
        "affi": "2",
        "areaCode": "151",
        "cityCode": "0161000",
        "stationCode": "0161020"
    },
    {
        "lat": "42.25",
        "lon": "142.56",
        "name": "新ひだか町三石旭町",
        "pref": "1",
        "affi": "2",
        "areaCode": "151",
        "cityCode": "0161000",
        "stationCode": "0161021"
    },
    {
        "lat": "42.42",
        "lon": "142.50",
        "name": "新ひだか町静内農屋",
        "pref": "1",
        "affi": "2",
        "areaCode": "151",
        "cityCode": "0161000",
        "stationCode": "0161022"
    },
    {
        "lat": "42.28",
        "lon": "142.75",
        "name": "浦河町野深",
        "pref": "1",
        "affi": "0",
        "areaCode": "152",
        "cityCode": "0160700",
        "stationCode": "0160701"
    },
    {
        "lat": "42.16",
        "lon": "142.78",
        "name": "浦河町潮見",
        "pref": "1",
        "affi": "0",
        "areaCode": "152",
        "cityCode": "0160700",
        "stationCode": "0160702"
    },
    {
        "lat": "42.17",
        "lon": "142.77",
        "name": "浦河町築地",
        "pref": "1",
        "affi": "2",
        "areaCode": "152",
        "cityCode": "0160700",
        "stationCode": "0160720"
    },
    {
        "lat": "42.13",
        "lon": "142.94",
        "name": "様似町栄町",
        "pref": "1",
        "affi": "2",
        "areaCode": "152",
        "cityCode": "0160800",
        "stationCode": "0160820"
    },
    {
        "lat": "42.02",
        "lon": "143.15",
        "name": "えりも町本町",
        "pref": "1",
        "affi": "0",
        "areaCode": "152",
        "cityCode": "0160900",
        "stationCode": "0160900"
    },
    {
        "lat": "42.13",
        "lon": "143.32",
        "name": "えりも町目黒",
        "pref": "1",
        "affi": "2",
        "areaCode": "152",
        "cityCode": "0160900",
        "stationCode": "0160921"
    },
    {
        "lat": "41.94",
        "lon": "143.24",
        "name": "えりも町えりも岬",
        "pref": "1",
        "affi": "2",
        "areaCode": "152",
        "cityCode": "0160900",
        "stationCode": "0160922"
    },
    {
        "lat": "43.32",
        "lon": "143.30",
        "name": "上士幌町清水谷",
        "pref": "1",
        "affi": "2",
        "areaCode": "155",
        "cityCode": "0163300",
        "stationCode": "0163320"
    },
    {
        "lat": "43.23",
        "lon": "143.30",
        "name": "上士幌町上士幌",
        "pref": "1",
        "affi": "1",
        "areaCode": "155",
        "cityCode": "0163300",
        "stationCode": "0163331"
    },
    {
        "lat": "43.10",
        "lon": "142.99",
        "name": "鹿追町東町",
        "pref": "1",
        "affi": "1",
        "areaCode": "155",
        "cityCode": "0163400",
        "stationCode": "0163431"
    },
    {
        "lat": "43.07",
        "lon": "142.84",
        "name": "新得町２条",
        "pref": "1",
        "affi": "2",
        "areaCode": "155",
        "cityCode": "0163500",
        "stationCode": "0163520"
    },
    {
        "lat": "43.33",
        "lon": "142.95",
        "name": "新得町トムラウシ",
        "pref": "1",
        "affi": "2",
        "areaCode": "155",
        "cityCode": "0163500",
        "stationCode": "0163521"
    },
    {
        "lat": "43.30",
        "lon": "143.77",
        "name": "足寄町上螺湾",
        "pref": "1",
        "affi": "0",
        "areaCode": "155",
        "cityCode": "0164700",
        "stationCode": "0164700"
    },
    {
        "lat": "43.24",
        "lon": "143.55",
        "name": "足寄町南１条",
        "pref": "1",
        "affi": "2",
        "areaCode": "155",
        "cityCode": "0164700",
        "stationCode": "0164720"
    },
    {
        "lat": "43.47",
        "lon": "143.75",
        "name": "陸別町陸別",
        "pref": "1",
        "affi": "2",
        "areaCode": "155",
        "cityCode": "0164800",
        "stationCode": "0164820"
    },
    {
        "lat": "42.92",
        "lon": "143.21",
        "name": "帯広市東４条",
        "pref": "1",
        "affi": "0",
        "areaCode": "156",
        "cityCode": "0120700",
        "stationCode": "0120700"
    },
    {
        "lat": "42.93",
        "lon": "143.21",
        "name": "帯広市東６条",
        "pref": "1",
        "affi": "2",
        "areaCode": "156",
        "cityCode": "0120700",
        "stationCode": "0120720"
    },
    {
        "lat": "42.99",
        "lon": "143.20",
        "name": "音更町元町",
        "pref": "1",
        "affi": "1",
        "areaCode": "156",
        "cityCode": "0163100",
        "stationCode": "0163131"
    },
    {
        "lat": "43.17",
        "lon": "143.24",
        "name": "士幌町士幌",
        "pref": "1",
        "affi": "2",
        "areaCode": "156",
        "cityCode": "0163200",
        "stationCode": "0163220"
    },
    {
        "lat": "43.01",
        "lon": "142.88",
        "name": "十勝清水町南４条",
        "pref": "1",
        "affi": "0",
        "areaCode": "156",
        "cityCode": "0163600",
        "stationCode": "0163600"
    },
    {
        "lat": "42.91",
        "lon": "143.05",
        "name": "芽室町東２条",
        "pref": "1",
        "affi": "1",
        "areaCode": "156",
        "cityCode": "0163700",
        "stationCode": "0163732"
    },
    {
        "lat": "42.62",
        "lon": "143.36",
        "name": "幕別町忠類明和",
        "pref": "1",
        "affi": "0",
        "areaCode": "156",
        "cityCode": "0164300",
        "stationCode": "0164300"
    },
    {
        "lat": "42.57",
        "lon": "143.31",
        "name": "幕別町忠類錦町",
        "pref": "1",
        "affi": "1",
        "areaCode": "156",
        "cityCode": "0164300",
        "stationCode": "0164333"
    },
    {
        "lat": "42.91",
        "lon": "143.36",
        "name": "幕別町本町",
        "pref": "1",
        "affi": "1",
        "areaCode": "156",
        "cityCode": "0164300",
        "stationCode": "0164334"
    },
    {
        "lat": "42.93",
        "lon": "143.45",
        "name": "十勝池田町西１条",
        "pref": "1",
        "affi": "2",
        "areaCode": "156",
        "cityCode": "0164400",
        "stationCode": "0164420"
    },
    {
        "lat": "42.80",
        "lon": "143.51",
        "name": "豊頃町茂岩本町",
        "pref": "1",
        "affi": "1",
        "areaCode": "156",
        "cityCode": "0164500",
        "stationCode": "0164531"
    },
    {
        "lat": "43.12",
        "lon": "143.61",
        "name": "本別町北２丁目",
        "pref": "1",
        "affi": "0",
        "areaCode": "156",
        "cityCode": "0164600",
        "stationCode": "0164600"
    },
    {
        "lat": "43.12",
        "lon": "143.62",
        "name": "本別町向陽町",
        "pref": "1",
        "affi": "2",
        "areaCode": "156",
        "cityCode": "0164600",
        "stationCode": "0164620"
    },
    {
        "lat": "42.81",
        "lon": "143.66",
        "name": "浦幌町桜町",
        "pref": "1",
        "affi": "2",
        "areaCode": "156",
        "cityCode": "0164900",
        "stationCode": "0164920"
    },
    {
        "lat": "42.70",
        "lon": "143.14",
        "name": "中札内村東２条",
        "pref": "1",
        "affi": "2",
        "areaCode": "157",
        "cityCode": "0163800",
        "stationCode": "0163820"
    },
    {
        "lat": "42.65",
        "lon": "143.19",
        "name": "更別村更別",
        "pref": "1",
        "affi": "1",
        "areaCode": "157",
        "cityCode": "0163900",
        "stationCode": "0163931"
    },
    {
        "lat": "42.50",
        "lon": "143.28",
        "name": "十勝大樹町東本通",
        "pref": "1",
        "affi": "2",
        "areaCode": "157",
        "cityCode": "0164100",
        "stationCode": "0164120"
    },
    {
        "lat": "42.62",
        "lon": "143.42",
        "name": "十勝大樹町生花",
        "pref": "1",
        "affi": "2",
        "areaCode": "157",
        "cityCode": "0164100",
        "stationCode": "0164121"
    },
    {
        "lat": "42.29",
        "lon": "143.32",
        "name": "広尾町並木通",
        "pref": "1",
        "affi": "0",
        "areaCode": "157",
        "cityCode": "0164200",
        "stationCode": "0164200"
    },
    {
        "lat": "42.29",
        "lon": "143.30",
        "name": "広尾町白樺通",
        "pref": "1",
        "affi": "0",
        "areaCode": "157",
        "cityCode": "0164200",
        "stationCode": "0164201"
    },
    {
        "lat": "43.48",
        "lon": "144.44",
        "name": "弟子屈町美里",
        "pref": "1",
        "affi": "0",
        "areaCode": "160",
        "cityCode": "0166500",
        "stationCode": "0166501"
    },
    {
        "lat": "43.51",
        "lon": "144.45",
        "name": "弟子屈町弟子屈",
        "pref": "1",
        "affi": "2",
        "areaCode": "160",
        "cityCode": "0166500",
        "stationCode": "0166520"
    },
    {
        "lat": "43.64",
        "lon": "144.39",
        "name": "弟子屈町サワンチサップ",
        "pref": "1",
        "affi": "2",
        "areaCode": "160",
        "cityCode": "0166500",
        "stationCode": "0166521"
    },
    {
        "lat": "42.99",
        "lon": "144.38",
        "name": "釧路市幸町",
        "pref": "1",
        "affi": "0",
        "areaCode": "161",
        "cityCode": "0120600",
        "stationCode": "0120601"
    },
    {
        "lat": "42.91",
        "lon": "143.83",
        "name": "釧路市音別町尺別",
        "pref": "1",
        "affi": "0",
        "areaCode": "161",
        "cityCode": "0120600",
        "stationCode": "0120602"
    },
    {
        "lat": "42.98",
        "lon": "144.38",
        "name": "釧路市黒金町",
        "pref": "1",
        "affi": "2",
        "areaCode": "161",
        "cityCode": "0120600",
        "stationCode": "0120620"
    },
    {
        "lat": "43.11",
        "lon": "144.12",
        "name": "釧路市阿寒町中央",
        "pref": "1",
        "affi": "2",
        "areaCode": "161",
        "cityCode": "0120600",
        "stationCode": "0120621"
    },
    {
        "lat": "43.44",
        "lon": "144.09",
        "name": "釧路市阿寒町阿寒湖温泉",
        "pref": "1",
        "affi": "2",
        "areaCode": "161",
        "cityCode": "0120600",
        "stationCode": "0120623"
    },
    {
        "lat": "42.89",
        "lon": "143.93",
        "name": "釧路市音別町中園",
        "pref": "1",
        "affi": "1",
        "areaCode": "161",
        "cityCode": "0120600",
        "stationCode": "0120641"
    },
    {
        "lat": "43.00",
        "lon": "144.47",
        "name": "釧路町別保",
        "pref": "1",
        "affi": "1",
        "areaCode": "161",
        "cityCode": "0166100",
        "stationCode": "0166131"
    },
    {
        "lat": "43.00",
        "lon": "144.69",
        "name": "厚岸町尾幌",
        "pref": "1",
        "affi": "0",
        "areaCode": "161",
        "cityCode": "0166200",
        "stationCode": "0166200"
    },
    {
        "lat": "43.05",
        "lon": "144.85",
        "name": "厚岸町真栄",
        "pref": "1",
        "affi": "2",
        "areaCode": "161",
        "cityCode": "0166200",
        "stationCode": "0166220"
    },
    {
        "lat": "43.08",
        "lon": "145.16",
        "name": "浜中町湯沸",
        "pref": "1",
        "affi": "0",
        "areaCode": "161",
        "cityCode": "0166300",
        "stationCode": "0166300"
    },
    {
        "lat": "43.13",
        "lon": "145.03",
        "name": "浜中町茶内",
        "pref": "1",
        "affi": "2",
        "areaCode": "161",
        "cityCode": "0166300",
        "stationCode": "0166321"
    },
    {
        "lat": "43.30",
        "lon": "144.60",
        "name": "標茶町川上",
        "pref": "1",
        "affi": "2",
        "areaCode": "161",
        "cityCode": "0166400",
        "stationCode": "0166420"
    },
    {
        "lat": "43.15",
        "lon": "144.50",
        "name": "標茶町塘路",
        "pref": "1",
        "affi": "2",
        "areaCode": "161",
        "cityCode": "0166400",
        "stationCode": "0166421"
    },
    {
        "lat": "43.23",
        "lon": "144.33",
        "name": "鶴居村鶴居東",
        "pref": "1",
        "affi": "2",
        "areaCode": "161",
        "cityCode": "0166700",
        "stationCode": "0166720"
    },
    {
        "lat": "42.96",
        "lon": "144.07",
        "name": "白糠町西１条",
        "pref": "1",
        "affi": "2",
        "areaCode": "161",
        "cityCode": "0166800",
        "stationCode": "0166820"
    },
    {
        "lat": "43.59",
        "lon": "144.72",
        "name": "中標津町養老牛",
        "pref": "1",
        "affi": "0",
        "areaCode": "165",
        "cityCode": "0169200",
        "stationCode": "0169200"
    },
    {
        "lat": "43.55",
        "lon": "144.97",
        "name": "中標津町丸山",
        "pref": "1",
        "affi": "2",
        "areaCode": "165",
        "cityCode": "0169200",
        "stationCode": "0169220"
    },
    {
        "lat": "43.78",
        "lon": "145.00",
        "name": "標津町古多糠",
        "pref": "1",
        "affi": "0",
        "areaCode": "165",
        "cityCode": "0169300",
        "stationCode": "0169300"
    },
    {
        "lat": "43.66",
        "lon": "145.13",
        "name": "標津町北２条",
        "pref": "1",
        "affi": "2",
        "areaCode": "165",
        "cityCode": "0169300",
        "stationCode": "0169320"
    },
    {
        "lat": "43.79",
        "lon": "145.06",
        "name": "標津町薫別",
        "pref": "1",
        "affi": "2",
        "areaCode": "165",
        "cityCode": "0169300",
        "stationCode": "0169321"
    },
    {
        "lat": "43.94",
        "lon": "145.12",
        "name": "羅臼町春日",
        "pref": "1",
        "affi": "0",
        "areaCode": "165",
        "cityCode": "0169400",
        "stationCode": "0169400"
    },
    {
        "lat": "44.02",
        "lon": "145.19",
        "name": "羅臼町緑町",
        "pref": "1",
        "affi": "2",
        "areaCode": "165",
        "cityCode": "0169400",
        "stationCode": "0169420"
    },
    {
        "lat": "44.11",
        "lon": "145.25",
        "name": "羅臼町岬町",
        "pref": "1",
        "affi": "2",
        "areaCode": "165",
        "cityCode": "0169400",
        "stationCode": "0169421"
    },
    {
        "lat": "43.39",
        "lon": "145.12",
        "name": "別海町常盤",
        "pref": "1",
        "affi": "0",
        "areaCode": "166",
        "cityCode": "0169100",
        "stationCode": "0169100"
    },
    {
        "lat": "43.41",
        "lon": "144.77",
        "name": "別海町西春別",
        "pref": "1",
        "affi": "2",
        "areaCode": "166",
        "cityCode": "0169100",
        "stationCode": "0169120"
    },
    {
        "lat": "43.39",
        "lon": "145.28",
        "name": "別海町本別海",
        "pref": "1",
        "affi": "2",
        "areaCode": "166",
        "cityCode": "0169100",
        "stationCode": "0169122"
    },
    {
        "lat": "43.33",
        "lon": "145.59",
        "name": "根室市弥栄",
        "pref": "1",
        "affi": "0",
        "areaCode": "167",
        "cityCode": "0122300",
        "stationCode": "0122300"
    },
    {
        "lat": "43.37",
        "lon": "145.74",
        "name": "根室市豊里",
        "pref": "1",
        "affi": "0",
        "areaCode": "167",
        "cityCode": "0122300",
        "stationCode": "0122301"
    },
    {
        "lat": "43.33",
        "lon": "145.60",
        "name": "根室市牧の内",
        "pref": "1",
        "affi": "2",
        "areaCode": "167",
        "cityCode": "0122300",
        "stationCode": "0122320"
    },
    {
        "lat": "43.23",
        "lon": "145.26",
        "name": "根室市厚床",
        "pref": "1",
        "affi": "2",
        "areaCode": "167",
        "cityCode": "0122300",
        "stationCode": "0122321"
    },
    {
        "lat": "43.19",
        "lon": "145.52",
        "name": "根室市落石東",
        "pref": "1",
        "affi": "2",
        "areaCode": "167",
        "cityCode": "0122300",
        "stationCode": "0122322"
    },
    {
        "lat": "43.37",
        "lon": "145.80",
        "name": "根室市珸瑤瑁",
        "pref": "1",
        "affi": "2",
        "areaCode": "167",
        "cityCode": "0122300",
        "stationCode": "0122323"
    },
    {
        "lat": "40.82",
        "lon": "140.77",
        "name": "青森市花園",
        "pref": "2",
        "affi": "0",
        "areaCode": "200",
        "cityCode": "0220100",
        "stationCode": "0220100"
    },
    {
        "lat": "40.82",
        "lon": "140.75",
        "name": "青森市中央",
        "pref": "2",
        "affi": "2",
        "areaCode": "200",
        "cityCode": "0220100",
        "stationCode": "0220120"
    },
    {
        "lat": "40.71",
        "lon": "140.60",
        "name": "青森市浪岡",
        "pref": "2",
        "affi": "1",
        "areaCode": "200",
        "cityCode": "0220100",
        "stationCode": "0220130"
    },
    {
        "lat": "40.80",
        "lon": "140.44",
        "name": "五所川原市栄町",
        "pref": "2",
        "affi": "0",
        "areaCode": "200",
        "cityCode": "0220500",
        "stationCode": "0220500"
    },
    {
        "lat": "41.06",
        "lon": "140.41",
        "name": "五所川原市太田",
        "pref": "2",
        "affi": "0",
        "areaCode": "200",
        "cityCode": "0220500",
        "stationCode": "0220501"
    },
    {
        "lat": "40.82",
        "lon": "140.45",
        "name": "五所川原市敷島町",
        "pref": "2",
        "affi": "2",
        "areaCode": "200",
        "cityCode": "0220500",
        "stationCode": "0220520"
    },
    {
        "lat": "41.06",
        "lon": "140.35",
        "name": "五所川原市相内",
        "pref": "2",
        "affi": "1",
        "areaCode": "200",
        "cityCode": "0220500",
        "stationCode": "0220533"
    },
    {
        "lat": "40.90",
        "lon": "140.46",
        "name": "五所川原市金木町",
        "pref": "2",
        "affi": "1",
        "areaCode": "200",
        "cityCode": "0220500",
        "stationCode": "0220534"
    },
    {
        "lat": "40.93",
        "lon": "140.95",
        "name": "平内町小湊",
        "pref": "2",
        "affi": "0",
        "areaCode": "200",
        "cityCode": "0230100",
        "stationCode": "0230100"
    },
    {
        "lat": "40.99",
        "lon": "140.92",
        "name": "平内町東田沢",
        "pref": "2",
        "affi": "2",
        "areaCode": "200",
        "cityCode": "0230100",
        "stationCode": "0230120"
    },
    {
        "lat": "41.18",
        "lon": "140.48",
        "name": "今別町今別",
        "pref": "2",
        "affi": "1",
        "areaCode": "200",
        "cityCode": "0230300",
        "stationCode": "0230330"
    },
    {
        "lat": "40.97",
        "lon": "140.66",
        "name": "蓬田村蓬田",
        "pref": "2",
        "affi": "1",
        "areaCode": "200",
        "cityCode": "0230400",
        "stationCode": "0230430"
    },
    {
        "lat": "40.70",
        "lon": "140.46",
        "name": "板柳町板柳",
        "pref": "2",
        "affi": "1",
        "areaCode": "200",
        "cityCode": "0238100",
        "stationCode": "0238132"
    },
    {
        "lat": "40.76",
        "lon": "140.43",
        "name": "鶴田町鶴田",
        "pref": "2",
        "affi": "1",
        "areaCode": "200",
        "cityCode": "0238400",
        "stationCode": "0238430"
    },
    {
        "lat": "40.79",
        "lon": "140.41",
        "name": "つがる市柏",
        "pref": "2",
        "affi": "1",
        "areaCode": "200",
        "cityCode": "0220900",
        "stationCode": "0220932"
    },
    {
        "lat": "40.78",
        "lon": "140.33",
        "name": "つがる市森田町",
        "pref": "2",
        "affi": "1",
        "areaCode": "200",
        "cityCode": "0220900",
        "stationCode": "0220936"
    },
    {
        "lat": "40.88",
        "lon": "140.40",
        "name": "つがる市稲垣町",
        "pref": "2",
        "affi": "1",
        "areaCode": "200",
        "cityCode": "0220900",
        "stationCode": "0220938"
    },
    {
        "lat": "40.95",
        "lon": "140.36",
        "name": "つがる市車力町",
        "pref": "2",
        "affi": "1",
        "areaCode": "200",
        "cityCode": "0220900",
        "stationCode": "0220939"
    },
    {
        "lat": "40.81",
        "lon": "140.38",
        "name": "つがる市木造",
        "pref": "2",
        "affi": "1",
        "areaCode": "200",
        "cityCode": "0220900",
        "stationCode": "0220940"
    },
    {
        "lat": "41.15",
        "lon": "140.63",
        "name": "外ヶ浜町平舘",
        "pref": "2",
        "affi": "1",
        "areaCode": "200",
        "cityCode": "0230700",
        "stationCode": "0230733"
    },
    {
        "lat": "41.19",
        "lon": "140.43",
        "name": "外ヶ浜町三厩",
        "pref": "2",
        "affi": "1",
        "areaCode": "200",
        "cityCode": "0230700",
        "stationCode": "0230734"
    },
    {
        "lat": "41.04",
        "lon": "140.63",
        "name": "外ヶ浜町蟹田",
        "pref": "2",
        "affi": "1",
        "areaCode": "200",
        "cityCode": "0230700",
        "stationCode": "0230735"
    },
    {
        "lat": "41.13",
        "lon": "140.30",
        "name": "中泊町小泊",
        "pref": "2",
        "affi": "1",
        "areaCode": "200",
        "cityCode": "0238700",
        "stationCode": "0238733"
    },
    {
        "lat": "40.96",
        "lon": "140.43",
        "name": "中泊町中里",
        "pref": "2",
        "affi": "1",
        "areaCode": "200",
        "cityCode": "0238700",
        "stationCode": "0238734"
    },
    {
        "lat": "40.61",
        "lon": "140.46",
        "name": "弘前市和田町",
        "pref": "2",
        "affi": "0",
        "areaCode": "201",
        "cityCode": "0220200",
        "stationCode": "0220200"
    },
    {
        "lat": "40.65",
        "lon": "140.36",
        "name": "弘前市弥生",
        "pref": "2",
        "affi": "0",
        "areaCode": "201",
        "cityCode": "0220200",
        "stationCode": "0220201"
    },
    {
        "lat": "40.60",
        "lon": "140.50",
        "name": "弘前市城東中央",
        "pref": "2",
        "affi": "2",
        "areaCode": "201",
        "cityCode": "0220200",
        "stationCode": "0220220"
    },
    {
        "lat": "40.62",
        "lon": "140.42",
        "name": "弘前市賀田",
        "pref": "2",
        "affi": "1",
        "areaCode": "201",
        "cityCode": "0220200",
        "stationCode": "0220230"
    },
    {
        "lat": "40.59",
        "lon": "140.40",
        "name": "弘前市五所",
        "pref": "2",
        "affi": "1",
        "areaCode": "201",
        "cityCode": "0220200",
        "stationCode": "0220232"
    },
    {
        "lat": "40.64",
        "lon": "140.59",
        "name": "黒石市市ノ町",
        "pref": "2",
        "affi": "1",
        "areaCode": "201",
        "cityCode": "0220400",
        "stationCode": "0220430"
    },
    {
        "lat": "40.78",
        "lon": "140.23",
        "name": "鰺ヶ沢町舞戸町鳴戸",
        "pref": "2",
        "affi": "0",
        "areaCode": "201",
        "cityCode": "0232100",
        "stationCode": "0232101"
    },
    {
        "lat": "40.78",
        "lon": "140.21",
        "name": "鰺ヶ沢町舞戸町小夜",
        "pref": "2",
        "affi": "2",
        "areaCode": "201",
        "cityCode": "0232100",
        "stationCode": "0232120"
    },
    {
        "lat": "40.60",
        "lon": "140.00",
        "name": "深浦町長慶平",
        "pref": "2",
        "affi": "0",
        "areaCode": "201",
        "cityCode": "0232300",
        "stationCode": "0232301"
    },
    {
        "lat": "40.65",
        "lon": "139.93",
        "name": "深浦町深浦岡町",
        "pref": "2",
        "affi": "0",
        "areaCode": "201",
        "cityCode": "0232300",
        "stationCode": "0232302"
    },
    {
        "lat": "40.64",
        "lon": "139.93",
        "name": "深浦町深浦中沢",
        "pref": "2",
        "affi": "2",
        "areaCode": "201",
        "cityCode": "0232300",
        "stationCode": "0232320"
    },
    {
        "lat": "40.58",
        "lon": "139.93",
        "name": "深浦町岩崎",
        "pref": "2",
        "affi": "1",
        "areaCode": "201",
        "cityCode": "0232300",
        "stationCode": "0232332"
    },
    {
        "lat": "40.58",
        "lon": "140.30",
        "name": "西目屋村田代",
        "pref": "2",
        "affi": "1",
        "areaCode": "201",
        "cityCode": "0234300",
        "stationCode": "0234331"
    },
    {
        "lat": "40.66",
        "lon": "140.50",
        "name": "藤崎町西豊田",
        "pref": "2",
        "affi": "1",
        "areaCode": "201",
        "cityCode": "0236100",
        "stationCode": "0236130"
    },
    {
        "lat": "40.67",
        "lon": "140.54",
        "name": "藤崎町水木",
        "pref": "2",
        "affi": "1",
        "areaCode": "201",
        "cityCode": "0236100",
        "stationCode": "0236132"
    },
    {
        "lat": "40.52",
        "lon": "140.57",
        "name": "大鰐町大鰐",
        "pref": "2",
        "affi": "1",
        "areaCode": "201",
        "cityCode": "0236200",
        "stationCode": "0236230"
    },
    {
        "lat": "40.63",
        "lon": "140.55",
        "name": "田舎館村田舎館",
        "pref": "2",
        "affi": "1",
        "areaCode": "201",
        "cityCode": "0236700",
        "stationCode": "0236731"
    },
    {
        "lat": "40.62",
        "lon": "140.57",
        "name": "平川市猿賀",
        "pref": "2",
        "affi": "1",
        "areaCode": "201",
        "cityCode": "0221000",
        "stationCode": "0221030"
    },
    {
        "lat": "40.47",
        "lon": "140.63",
        "name": "平川市碇ヶ関",
        "pref": "2",
        "affi": "1",
        "areaCode": "201",
        "cityCode": "0221000",
        "stationCode": "0221033"
    },
    {
        "lat": "40.58",
        "lon": "140.57",
        "name": "平川市柏木町",
        "pref": "2",
        "affi": "1",
        "areaCode": "201",
        "cityCode": "0221000",
        "stationCode": "0221034"
    },
    {
        "lat": "40.38",
        "lon": "141.51",
        "name": "八戸市島守",
        "pref": "2",
        "affi": "0",
        "areaCode": "202",
        "cityCode": "0220300",
        "stationCode": "0220301"
    },
    {
        "lat": "40.53",
        "lon": "141.52",
        "name": "八戸市湊町",
        "pref": "2",
        "affi": "0",
        "areaCode": "202",
        "cityCode": "0220300",
        "stationCode": "0220302"
    },
    {
        "lat": "40.51",
        "lon": "141.49",
        "name": "八戸市内丸",
        "pref": "2",
        "affi": "2",
        "areaCode": "202",
        "cityCode": "0220300",
        "stationCode": "0220320"
    },
    {
        "lat": "40.40",
        "lon": "141.44",
        "name": "八戸市南郷",
        "pref": "2",
        "affi": "1",
        "areaCode": "202",
        "cityCode": "0220300",
        "stationCode": "0220331"
    },
    {
        "lat": "40.62",
        "lon": "141.21",
        "name": "十和田市西二番町",
        "pref": "2",
        "affi": "2",
        "areaCode": "202",
        "cityCode": "0220600",
        "stationCode": "0220621"
    },
    {
        "lat": "40.61",
        "lon": "141.21",
        "name": "十和田市西十二番町",
        "pref": "2",
        "affi": "1",
        "areaCode": "202",
        "cityCode": "0220600",
        "stationCode": "0220630"
    },
    {
        "lat": "40.59",
        "lon": "141.11",
        "name": "十和田市奥瀬",
        "pref": "2",
        "affi": "1",
        "areaCode": "202",
        "cityCode": "0220600",
        "stationCode": "0220632"
    },
    {
        "lat": "40.68",
        "lon": "141.37",
        "name": "三沢市桜町",
        "pref": "2",
        "affi": "1",
        "areaCode": "202",
        "cityCode": "0220700",
        "stationCode": "0220731"
    },
    {
        "lat": "40.87",
        "lon": "141.14",
        "name": "野辺地町田狭沢",
        "pref": "2",
        "affi": "2",
        "areaCode": "202",
        "cityCode": "0240100",
        "stationCode": "0240120"
    },
    {
        "lat": "40.86",
        "lon": "141.13",
        "name": "野辺地町野辺地",
        "pref": "2",
        "affi": "1",
        "areaCode": "202",
        "cityCode": "0240100",
        "stationCode": "0240131"
    },
    {
        "lat": "40.79",
        "lon": "141.06",
        "name": "七戸町北天間舘",
        "pref": "2",
        "affi": "0",
        "areaCode": "202",
        "cityCode": "0240200",
        "stationCode": "0240200"
    },
    {
        "lat": "40.74",
        "lon": "141.16",
        "name": "七戸町森ノ上",
        "pref": "2",
        "affi": "1",
        "areaCode": "202",
        "cityCode": "0240200",
        "stationCode": "0240231"
    },
    {
        "lat": "40.70",
        "lon": "141.15",
        "name": "七戸町七戸",
        "pref": "2",
        "affi": "1",
        "areaCode": "202",
        "cityCode": "0240200",
        "stationCode": "0240232"
    },
    {
        "lat": "40.61",
        "lon": "141.33",
        "name": "六戸町犬落瀬",
        "pref": "2",
        "affi": "1",
        "areaCode": "202",
        "cityCode": "0240500",
        "stationCode": "0240531"
    },
    {
        "lat": "41.08",
        "lon": "141.26",
        "name": "横浜町林ノ脇",
        "pref": "2",
        "affi": "2",
        "areaCode": "202",
        "cityCode": "0240600",
        "stationCode": "0240620"
    },
    {
        "lat": "41.08",
        "lon": "141.25",
        "name": "横浜町寺下",
        "pref": "2",
        "affi": "1",
        "areaCode": "202",
        "cityCode": "0240600",
        "stationCode": "0240630"
    },
    {
        "lat": "40.73",
        "lon": "141.26",
        "name": "東北町上北南",
        "pref": "2",
        "affi": "1",
        "areaCode": "202",
        "cityCode": "0240800",
        "stationCode": "0240831"
    },
    {
        "lat": "40.78",
        "lon": "141.22",
        "name": "東北町塔ノ沢山",
        "pref": "2",
        "affi": "1",
        "areaCode": "202",
        "cityCode": "0240800",
        "stationCode": "0240832"
    },
    {
        "lat": "40.97",
        "lon": "141.37",
        "name": "六ヶ所村尾駮",
        "pref": "2",
        "affi": "0",
        "areaCode": "202",
        "cityCode": "0241100",
        "stationCode": "0241100"
    },
    {
        "lat": "41.01",
        "lon": "141.37",
        "name": "六ヶ所村出戸",
        "pref": "2",
        "affi": "0",
        "areaCode": "202",
        "cityCode": "0241100",
        "stationCode": "0241101"
    },
    {
        "lat": "40.38",
        "lon": "141.26",
        "name": "三戸町在府小路町",
        "pref": "2",
        "affi": "1",
        "areaCode": "202",
        "cityCode": "0244100",
        "stationCode": "0244131"
    },
    {
        "lat": "40.53",
        "lon": "141.31",
        "name": "五戸町古舘",
        "pref": "2",
        "affi": "0",
        "areaCode": "202",
        "cityCode": "0244200",
        "stationCode": "0244200"
    },
    {
        "lat": "40.51",
        "lon": "141.25",
        "name": "五戸町倉石中市",
        "pref": "2",
        "affi": "1",
        "areaCode": "202",
        "cityCode": "0244200",
        "stationCode": "0244231"
    },
    {
        "lat": "40.34",
        "lon": "141.15",
        "name": "田子町田子",
        "pref": "2",
        "affi": "1",
        "areaCode": "202",
        "cityCode": "0244300",
        "stationCode": "0244331"
    },
    {
        "lat": "40.41",
        "lon": "141.28",
        "name": "青森南部町沖田面",
        "pref": "2",
        "affi": "1",
        "areaCode": "202",
        "cityCode": "0244500",
        "stationCode": "0244530"
    },
    {
        "lat": "40.47",
        "lon": "141.38",
        "name": "青森南部町苫米地",
        "pref": "2",
        "affi": "1",
        "areaCode": "202",
        "cityCode": "0244500",
        "stationCode": "0244534"
    },
    {
        "lat": "40.42",
        "lon": "141.33",
        "name": "青森南部町平",
        "pref": "2",
        "affi": "1",
        "areaCode": "202",
        "cityCode": "0244500",
        "stationCode": "0244536"
    },
    {
        "lat": "40.45",
        "lon": "141.62",
        "name": "階上町道仏",
        "pref": "2",
        "affi": "1",
        "areaCode": "202",
        "cityCode": "0244600",
        "stationCode": "0244632"
    },
    {
        "lat": "40.47",
        "lon": "141.17",
        "name": "新郷村戸来",
        "pref": "2",
        "affi": "1",
        "areaCode": "202",
        "cityCode": "0245000",
        "stationCode": "0245031"
    },
    {
        "lat": "40.60",
        "lon": "141.40",
        "name": "おいらせ町中下田",
        "pref": "2",
        "affi": "1",
        "areaCode": "202",
        "cityCode": "0241200",
        "stationCode": "0241231"
    },
    {
        "lat": "40.60",
        "lon": "141.43",
        "name": "おいらせ町上明堂",
        "pref": "2",
        "affi": "1",
        "areaCode": "202",
        "cityCode": "0241200",
        "stationCode": "0241232"
    },
    {
        "lat": "41.28",
        "lon": "141.21",
        "name": "むつ市金曲",
        "pref": "2",
        "affi": "0",
        "areaCode": "203",
        "cityCode": "0220800",
        "stationCode": "0220800"
    },
    {
        "lat": "41.38",
        "lon": "141.04",
        "name": "むつ市大畑町奥薬研",
        "pref": "2",
        "affi": "0",
        "areaCode": "203",
        "cityCode": "0220800",
        "stationCode": "0220801"
    },
    {
        "lat": "41.29",
        "lon": "141.20",
        "name": "むつ市金谷",
        "pref": "2",
        "affi": "2",
        "areaCode": "203",
        "cityCode": "0220800",
        "stationCode": "0220820"
    },
    {
        "lat": "41.41",
        "lon": "141.17",
        "name": "むつ市大畑町中島",
        "pref": "2",
        "affi": "2",
        "areaCode": "203",
        "cityCode": "0220800",
        "stationCode": "0220824"
    },
    {
        "lat": "41.20",
        "lon": "141.00",
        "name": "むつ市川内町",
        "pref": "2",
        "affi": "1",
        "areaCode": "203",
        "cityCode": "0220800",
        "stationCode": "0220830"
    },
    {
        "lat": "41.15",
        "lon": "140.81",
        "name": "むつ市脇野沢",
        "pref": "2",
        "affi": "1",
        "areaCode": "203",
        "cityCode": "0220800",
        "stationCode": "0220832"
    },
    {
        "lat": "41.52",
        "lon": "140.91",
        "name": "大間町大間",
        "pref": "2",
        "affi": "1",
        "areaCode": "203",
        "cityCode": "0242300",
        "stationCode": "0242331"
    },
    {
        "lat": "41.27",
        "lon": "141.34",
        "name": "東通村砂子又蒲谷地",
        "pref": "2",
        "affi": "0",
        "areaCode": "203",
        "cityCode": "0242400",
        "stationCode": "0242400"
    },
    {
        "lat": "41.41",
        "lon": "141.45",
        "name": "東通村尻屋",
        "pref": "2",
        "affi": "2",
        "areaCode": "203",
        "cityCode": "0242400",
        "stationCode": "0242420"
    },
    {
        "lat": "41.17",
        "lon": "141.38",
        "name": "東通村白糠",
        "pref": "2",
        "affi": "2",
        "areaCode": "203",
        "cityCode": "0242400",
        "stationCode": "0242422"
    },
    {
        "lat": "41.28",
        "lon": "141.33",
        "name": "東通村砂子又沢内",
        "pref": "2",
        "affi": "1",
        "areaCode": "203",
        "cityCode": "0242400",
        "stationCode": "0242431"
    },
    {
        "lat": "41.49",
        "lon": "141.00",
        "name": "風間浦村易国間",
        "pref": "2",
        "affi": "1",
        "areaCode": "203",
        "cityCode": "0242500",
        "stationCode": "0242530"
    },
    {
        "lat": "41.33",
        "lon": "140.81",
        "name": "佐井村長後",
        "pref": "2",
        "affi": "2",
        "areaCode": "203",
        "cityCode": "0242600",
        "stationCode": "0242620"
    },
    {
        "lat": "41.43",
        "lon": "140.86",
        "name": "佐井村佐井",
        "pref": "2",
        "affi": "1",
        "areaCode": "203",
        "cityCode": "0242600",
        "stationCode": "0242631"
    },
    {
        "lat": "39.65",
        "lon": "141.97",
        "name": "宮古市鍬ヶ崎",
        "pref": "3",
        "affi": "0",
        "areaCode": "210",
        "cityCode": "0320200",
        "stationCode": "0320200"
    },
    {
        "lat": "39.58",
        "lon": "141.82",
        "name": "宮古市長沢",
        "pref": "3",
        "affi": "0",
        "areaCode": "210",
        "cityCode": "0320200",
        "stationCode": "0320201"
    },
    {
        "lat": "39.65",
        "lon": "141.95",
        "name": "宮古市五月町",
        "pref": "3",
        "affi": "2",
        "areaCode": "210",
        "cityCode": "0320200",
        "stationCode": "0320220"
    },
    {
        "lat": "39.60",
        "lon": "141.68",
        "name": "宮古市川井",
        "pref": "3",
        "affi": "2",
        "areaCode": "210",
        "cityCode": "0320200",
        "stationCode": "0320222"
    },
    {
        "lat": "39.63",
        "lon": "141.44",
        "name": "宮古市区界",
        "pref": "3",
        "affi": "2",
        "areaCode": "210",
        "cityCode": "0320200",
        "stationCode": "0320223"
    },
    {
        "lat": "39.74",
        "lon": "141.97",
        "name": "宮古市田老",
        "pref": "3",
        "affi": "2",
        "areaCode": "210",
        "cityCode": "0320200",
        "stationCode": "0320224"
    },